Venue,Venue Latitude,Venue Longitude,Venue Category,Health System,geom,Address,Postcode,Borough,CVE GEO,Neighbourhood
Laboratorio Corregidora,20.595621028703500,-100.392676878503,Medical Center,Private,"20.595621028703498,-100.392676878503","75, Avenida Corregidora, Centro, Delegación Centro Histórico, Santiago de Querétaro, Municipio de Querétaro, Querétaro, 76000, México",76000,Queretaro,220140001038A,Centro
salud digna,20.5867425537626,-100.39547810202300,Medical Center,Private,"20.5867425537626,-100.39547810202299","Multimundo, 15, Avenida Ignacio Zaragoza, Centro, Delegación Centro Histórico, Santiago de Querétaro, Municipio de Querétaro, Querétaro, 76000, México",76000,Queretaro,2201400010411,Centro
Sanatorio Margarita,20.592357387953100,-100.39521346802600,Hospital,Private,"20.592357387953104,-100.39521346802601","9, Calle Vicente Guerrero, Centro, Delegación Centro Histórico, Santiago de Querétaro, Municipio de Querétaro, Querétaro, 76000, México",76000,Queretaro,2201400010375,Centro
Sanatorio Santiago de Querétaro,20.5921186289838,-100.399937383702,Hospital,Private,"20.5921186289838,-100.399937383702","101, Calle Miguel Hidalgo, Centro, Delegación Centro Histórico, Santiago de Querétaro, Municipio de Querétaro, Querétaro, 76000, México",76000,Queretaro,2201400010360,Centro
Fisioterapia,20.591962,-100.400661,Medical Center,Private,"20.591962,-100.400661","51, Calle Nicolás Campa, Centro, Delegación Centro Histórico, Santiago de Querétaro, Municipio de Querétaro, Querétaro, 76000, México",76000,Queretaro,2201400010360,Centro
Hospital Santa Rosa de Viterbo,20.5885059985943,-100.397214299662,Hospital,Private,"20.5885059985943,-100.397214299662","34, Calle Ezequiel Montes, Centro, Delegación Centro Histórico, Santiago de Querétaro, Municipio de Querétaro, Querétaro, 76000, México",76000,Queretaro,2201400010411,Centro
Sanatorio Mariano,20.590467339588200,-100.39383043043000,Medical Center,Private,"20.590467339588198,-100.39383043042999","15, Calle Vicente Guerrero, Centro, Delegación Centro Histórico, Santiago de Querétaro, Municipio de Querétaro, Querétaro, 76000, México",76000,Queretaro,2201400010375,Centro
Policlínica Médica De Querétaro,20.5912154420652,-100.392235134375,Medical Center,Private,"20.5912154420652,-100.392235134375","32, Calle Benito Juárez Sur, Centro, Delegación Centro Histórico, Santiago de Querétaro, Municipio de Querétaro, Querétaro, 76000, México",76000,Queretaro,2201400010375,Centro
Ópticas Devlyn,20.596444,-100.393887,Doctor's Office,Private,"20.596444,-100.393887","119, Calle Benito Juárez Norte, Centro, Delegación Centro Histórico, Santiago de Querétaro, Municipio de Querétaro, Querétaro, 76000, México",76000,Queretaro,2201400010375,Centro
Hospital Luis Martin,20.5876890349959,-100.394677100216,Hospital,Private,"20.5876890349959,-100.394677100216","Luis Matín, 88, Avenida Ignacio Zaragoza, Centro, Delegación Centro Histórico, Santiago de Querétaro, Municipio de Querétaro, Querétaro, 76000, México",76000,Queretaro,2201400010411,Centro
Sanatorio Alcocer Pozo,20.590617850264400,-100.38987955348,Hospital,Private,"20.590617850264398,-100.38987955348","28, Calle Reforma, Centro, Delegación Centro Histórico, Santiago de Querétaro, Municipio de Querétaro, Querétaro, 76000, México",76000,Queretaro,2201400012314,Centro
Medicina Transfusional de Querétaro (Banco de Sangre),20.5875387160789,-100.400329916348,Hospital,Public,"20.5875387160789,-100.400329916348","32, Calle Ignacio Pérez, Centro, Delegación Centro Histórico, Santiago de Querétaro, Municipio de Querétaro, Querétaro, 76000, México",76000,Queretaro,2201400010411,Centro
Clinica Medica Familiar ISSSTE Queretaro,20.5925212301515,-100.405643527679,Hospital,Public,"20.5925212301515,-100.405643527679","Ciclovía Tecnológico, Centro, Delegación Centro Histórico, Santiago de Querétaro, Municipio de Querétaro, Querétaro, 76000, México",76000,Queretaro,2201400011138,Centro
FisioINTEGRATE (Fisioterapia Y Rehabilitacion),20.5918560028076,-100.40054321289100,Doctor's Office,Private,"20.5918560028076,-100.40054321289101","51, Calle Nicolás Campa, Centro, Delegación Centro Histórico, Santiago de Querétaro, Municipio de Querétaro, Querétaro, 76000, México",76000,Queretaro,2201400010360,Centro
ISSSTE Hospital General,20.5926966286871,-100.40619850158700,Hospital,Public,"20.5926966286871,-100.40619850158701","ISSSTE, Calle Justo Sierra, Centro, Delegación Centro Histórico, Santiago de Querétaro, Municipio de Querétaro, Querétaro, 76000, México",76000,Queretaro,2201400011138,Centro
Medicina transfusional de Querétaro,20.5875655512603,-100.40038601889200,Doctor's Office,Private,"20.5875655512603,-100.40038601889201","32, Calle Ignacio Pérez, Centro, Delegación Centro Histórico, Santiago de Querétaro, Municipio de Querétaro, Querétaro, 76000, México",76000,Queretaro,2201400011316,Centro
Clinica Naturista Dra. Eliud,20.5882361,-100.4020996,Doctor's Office,Private,"20.5882361,-100.4020996","Calle Régules, Centro, Delegación Centro Histórico, Santiago de Querétaro, Municipio de Querétaro, Querétaro, 76000, México",76000,Queretaro,2201400010360,Centro
Medica 4,20.5952968100212,-100.39244626737500,Dentist's Office,Private,"20.5952968100212,-100.39244626737499","58, Avenida Corregidora, Centro, Delegación Centro Histórico, Santiago de Querétaro, Municipio de Querétaro, Querétaro, 76000, México",76000,Queretaro,220140001038A,Centro
Clínica Dental Terán,20.591094910569500,-100.397879242055,Dentist's Office,Private,"20.591094910569502,-100.397879242055","10, Calle Ezequiel Montes, Centro, Delegación Centro Histórico, Santiago de Querétaro, Municipio de Querétaro, Querétaro, 76000, México",76000,Queretaro,2201400010375,Centro
Odontologia Restauradora ( Dra. Eva Campos),20.588786,-100.397169,Dentist's Office,Private,"20.588786,-100.397169","28, Calle Ezequiel Montes, Centro, Delegación Centro Histórico, Santiago de Querétaro, Municipio de Querétaro, Querétaro, 76000, México",76000,Queretaro,2201400010411,Centro
Dentista,20.592176886488600,-100.38910612464000,Dentist's Office,Private,"20.592176886488602,-100.38910612464001","58, Calle Independencia, Centro, Delegación Centro Histórico, Santiago de Querétaro, Municipio de Querétaro, Querétaro, 76000, México",76000,Queretaro,2201400012314,Centro
Sorriso Clínica Dental,20.5881186743947,-100.400857041103,Dentist's Office,Private,"20.5881186743947,-100.400857041103","18, Calle Ignacio Pérez, Centro, Delegación Centro Histórico, Santiago de Querétaro, Municipio de Querétaro, Querétaro, 76000, México",76000,Queretaro,2201400010411,Centro
DENTAL CENTER odotonlogia integral,20.5874400351134,-100.393661211919,Dentist's Office,Private,"20.5874400351134,-100.393661211919","Plaza Zaragoza, Avenida Ignacio Zaragoza, Centro, Delegación Centro Histórico, Santiago de Querétaro, Municipio de Querétaro, Querétaro, 76000, México",76000,Queretaro,2201400010411,Centro
Dental Center RAV,20.587466411832,-100.393591929228,Dentist's Office,Private,"20.587466411832,-100.393591929228","67, Calle Vicente Guerrero, Centro, Delegación Centro Histórico, Santiago de Querétaro, Municipio de Querétaro, Querétaro, 76000, México",76000,Queretaro,2201400010411,Centro
ISSSTE Hospital General Queretaro,20.592926501320100,-100.407072373267,Hospital,Public,"20.592926501320104,-100.407072373267","ISSSTE, Calle Justo Sierra, Centro, Delegación Centro Histórico, Santiago de Querétaro, Municipio de Querétaro, Querétaro, 76000, México",76000,Queretaro,2201400011138,Centro
Colegio Médico de Querétaro,20.591759444491,-100.406604037344,Doctor's Office,Private,"20.591759444491,-100.406604037344","Calle Ignacio Ramírez, Centro, Delegación Centro Histórico, Santiago de Querétaro, Municipio de Querétaro, Querétaro, 76000, México",76000,Queretaro,2201400011138,Centro
Clinica De Atencion Al Pie,20.5862072063301,-100.40047927013500,Doctor's Office,Private,"20.5862072063301,-100.40047927013501","café madero, Calle Ignacio Pérez, Centro, Delegación Centro Histórico, Santiago de Querétaro, Municipio de Querétaro, Querétaro, 76000, México",76000,Queretaro,2201400011316,Centro
Hospital Tec 100 Torre 3,20.584102,-100.4005,Hospital,Private,"20.584102,-100.4005","Centro, Delegación Centro Histórico, Santiago de Querétaro, Municipio de Querétaro, Querétaro, 76000, México",76000,Queretaro,2201400011316,Centro
Tec100 Torre 2,20.584145347462600,-100.40038046658,Doctor's Office,Private,"20.584145347462602,-100.40038046658","Centro, Delegación Centro Histórico, Santiago de Querétaro, Municipio de Querétaro, Querétaro, 76000, México",76000,Queretaro,2201400011316,Centro
Urgencias Hospital Médica Tec 100,20.5841560295782,-100.400473784765,Emergency Room,Private,"20.5841560295782,-100.400473784765","Centro, Delegación Centro Histórico, Santiago de Querétaro, Municipio de Querétaro, Querétaro, 76000, México",76000,Queretaro,2201400011316,Centro
Laboratorio LABSA,20.590414650864000,-100.389074491505,Medical Lab,Private,"20.590414650864002,-100.389074491505","42, Calle Reforma, Centro, Delegación Centro Histórico, Santiago de Querétaro, Municipio de Querétaro, Querétaro, 76000, México",76000,Queretaro,2201400012314,Centro
Secretaría De Salud,20.5943935755244,-100.39026151674800,Goverment Center,Public,"20.5943935755244,-100.39026151674801","51, Calle 16 de Septiembre, Barrio de la Cruz, Delegación Centro Histórico, Santiago de Querétaro, Municipio de Querétaro, Querétaro, 76020, México",76020,Queretaro,220140001038A,"San Javier, Pathé, La Cruz, Jardines de Queretaro, Diligencias, Calesa, Bosques del Acueducto, El Cortijo"
Clinica Orquideas,20.5941262605388,-100.379081058116,Medical Center,Private,"20.5941262605388,-100.379081058116","Calle Orquídeas, Jardines de Querétaro, Delegación Centro Histórico, Santiago de Querétaro, Municipio de Querétaro, Querétaro, 76020, México",76020,Queretaro,2201400010394,"San Javier, Pathé, La Cruz, Jardines de Queretaro, Diligencias, Calesa, Bosques del Acueducto, El Cortijo"
Hospital De La Santa Cruz,20.5950447915885,-100.37979379429300,Hospital,Private,"20.5950447915885,-100.37979379429301","Hospital de la Cruz, Privada Circunvalación, Jardines de Querétaro, Delegación Centro Histórico, Santiago de Querétaro, Municipio de Querétaro, Querétaro, 76020, México",76020,Queretaro,2201400010394,"San Javier, Pathé, La Cruz, Jardines de Queretaro, Diligencias, Calesa, Bosques del Acueducto, El Cortijo"
Clínica médica del bosque,20.596009469787600,-100.37694832726,Hospital,Private,"20.596009469787603,-100.37694832726","Calle Ramón Rodríguez Familiar, Pathe, Delegación Centro Histórico, Santiago de Querétaro, Municipio de Querétaro, Querétaro, 76020, México",76020,Queretaro,2201400010394,"San Javier, Pathé, La Cruz, Jardines de Queretaro, Diligencias, Calesa, Bosques del Acueducto, El Cortijo"
Clinica Medica Equilibrium Dentista Nutrición Psicología Medicina Estética Spa,20.598439,-100.37637,Medical Center,Private,"20.598439,-100.37637","Calzada Pathé, Pathe, Delegación Centro Histórico, Santiago de Querétaro, Municipio de Querétaro, Querétaro, 76020, México",76020,Queretaro,2201400010337,"San Javier, Pathé, La Cruz, Jardines de Queretaro, Diligencias, Calesa, Bosques del Acueducto, El Cortijo"
nutrire,20.5946048457217,-100.386103391647,Medical Center,Private,"20.5946048457217,-100.386103391647","2, Calle Manuel Gutiérrez Nájera, Barrio de la Cruz, Delegación Centro Histórico, Santiago de Querétaro, Municipio de Querétaro, Querétaro, 76020, México",76020,Queretaro,220140001038A,"San Javier, Pathé, La Cruz, Jardines de Queretaro, Diligencias, Calesa, Bosques del Acueducto, El Cortijo"
Intermedic,20.5951015947009,-100.37709267531,Medical Lab,Private,"20.5951015947009,-100.37709267531","Calle Ramón Rodríguez Familiar, Pathe, Delegación Centro Histórico, Santiago de Querétaro, Municipio de Querétaro, Querétaro, 76020, México",76020,Queretaro,2201400010394,"San Javier, Pathé, La Cruz, Jardines de Queretaro, Diligencias, Calesa, Bosques del Acueducto, El Cortijo"
Psic. Jorge Luis Mendoza,20.5952375650456,-100.37743449211100,Mental Health Office,Private,"20.5952375650456,-100.37743449211099","Calle Margaritas, Jardines de Querétaro, Delegación Centro Histórico, Santiago de Querétaro, Municipio de Querétaro, Querétaro, 76020, México",76020,Queretaro,2201400010394,"San Javier, Pathé, La Cruz, Jardines de Queretaro, Diligencias, Calesa, Bosques del Acueducto, El Cortijo"
Consultorio Dental Adei,20.599729563132500,-100.375869762376,Dentist's Office,Private,"20.599729563132502,-100.375869762376","Matador, Lateral Bernardo Quintana, Pathe, Delegación Centro Histórico, Santiago de Querétaro, Municipio de Querétaro, Querétaro, 76020, México",76020,Queretaro,2201400010337,"San Javier, Pathé, La Cruz, Jardines de Queretaro, Diligencias, Calesa, Bosques del Acueducto, El Cortijo"
Laboratorio Medicina y Diagnostico de Querétaro,20.5934964470507,-100.386640739595,Medical Lab,Private,"20.5934964470507,-100.386640739595","31, Calle Venustiano Carranza, Barrio de la Cruz, Delegación Centro Histórico, Santiago de Querétaro, Municipio de Querétaro, Querétaro, 76020, México",76020,Queretaro,220140001038A,"San Javier, Pathé, La Cruz, Jardines de Queretaro, Diligencias, Calesa, Bosques del Acueducto, El Cortijo"
Hospital del Sagrado Corazon,20.5991337092716,-100.393372923091,Hospital,Private,"20.5991337092716,-100.393372923091","277, Avenida Corregidora, Nacozari, Delegación Centro Histórico, Santiago de Querétaro, Municipio de Querétaro, Querétaro, 76164, México",76164,Queretaro,2201400010318,"Nacozari, Las Rosas, Primavera"
Centro de Salud Dr. Pedro Escobedo,20.588855910512200,-100.398897611822,Medical Center,Public,"20.588855910512198,-100.398897611822","159, Calle José María Pino Suárez, Niños Héroes, Delegación Centro Histórico, Santiago de Querétaro, Municipio de Querétaro, Querétaro, 76010, México",76010,Queretaro,2201400010375,"Las Campanas, Niños Héroes"
Dr. Felipe Villa Bernardino,20.587675357854600,-100.41087873639500,Doctor's Office,Private,"20.587675357854604,-100.41087873639499","Avenida Heróico Colegio Militar, Las Campanas, Delegación Centro Histórico, Santiago de Querétaro, Municipio de Querétaro, Querétaro, 76010, México",76010,Queretaro,2201400012297,"Las Campanas, Niños Héroes"
Clinica Las Campanas,20.588920048596600,-100.411277645666,Doctor's Office,Private,"20.588920048596602,-100.411277645666","Calle Molino del Rey, Las Campanas, Delegación Centro Histórico, Santiago de Querétaro, Municipio de Querétaro, Querétaro, 76010, México",76010,Queretaro,2201400012297,"Las Campanas, Niños Héroes"
Endocenter Clinica Dental,20.5889755367895,-100.411310791969,Dentist's Office,Private,"20.5889755367895,-100.411310791969","Calle Molino del Rey, Las Campanas, Delegación Centro Histórico, Santiago de Querétaro, Municipio de Querétaro, Querétaro, 76010, México",76010,Queretaro,2201400012297,"Las Campanas, Niños Héroes"
SESEQ Adquisiciones,20.596593313663400,-100.39018416326400,Goverment Center,Public,"20.596593313663398,-100.39018416326401","Calle Próspero C. Vega, Jacarandas, Delegación Centro Histórico, Santiago de Querétaro, Municipio de Querétaro, Querétaro, 76168, México",76168,Queretaro,220140001038A,"Claustros del Parque, Residencial Bosques, Mega Plaza, Lomas de Lindavista, Jacarandas, Industria del Hierro, Las Gemas, Quinta La Laborcilla, Lindavista"
Visual center,20.6095695428415,-100.386786607174,Medical Center,Private,"20.6095695428415,-100.386786607174","52, Avenida Manufactura, Bosques, Delegación Centro Histórico, Santiago de Querétaro, Municipio de Querétaro, Querétaro, 76168, México",76168,Queretaro,2201400012244,"Claustros del Parque, Residencial Bosques, Mega Plaza, Lomas de Lindavista, Jacarandas, Industria del Hierro, Las Gemas, Quinta La Laborcilla, Lindavista"
Laboratorio Chopo,20.6102381714336,-100.387255009166,Medical Lab,Private,"20.6102381714336,-100.387255009166","Italian Coffee Company, Avenida Manufactura, Bosques, Delegación Centro Histórico, Santiago de Querétaro, Municipio de Querétaro, Querétaro, 76168, México",76168,Queretaro,2201400012244,"Claustros del Parque, Residencial Bosques, Mega Plaza, Lomas de Lindavista, Jacarandas, Industria del Hierro, Las Gemas, Quinta La Laborcilla, Lindavista"
Hospital Medica EBOR,20.6098707103242,-100.399087743801,Hospital,Private,"20.6098707103242,-100.399087743801","Medica EBOR, Tercera privada Felipe Ángeles, Felipe Ángeles, Delegación Centro Histórico, Santiago de Querétaro, Municipio de Querétaro, Querétaro, 76168, México",76168,Queretaro,2201400011227,"Claustros del Parque, Residencial Bosques, Mega Plaza, Lomas de Lindavista, Jacarandas, Industria del Hierro, Las Gemas, Quinta La Laborcilla, Lindavista"
Grupo Médico Zaragoza,20.5861333687194,-100.397699529366,Doctor's Office,Private,"20.5861333687194,-100.397699529366","71, Calle Nicolás Campa, El Carrizal, Delegación Centro Histórico, Santiago de Querétaro, Municipio de Querétaro, Querétaro, 76005, México",76005,Queretaro,2201400010411,"Rincón de San Andrés, Mariano Escobedo, Vicente Guerrero, Rinconada Morelos"
Medical Center,20.5860823628221,-100.398257722511,Medical Supply Store,Private,"20.5860823628221,-100.398257722511","71, Calle Nicolás Campa, El Carrizal, Delegación Centro Histórico, Santiago de Querétaro, Municipio de Querétaro, Querétaro, 76005, México",76005,Queretaro,2201400010411,"Rincón de San Andrés, Mariano Escobedo, Vicente Guerrero, Rinconada Morelos"
Hospital H+ Querétaro,20.5844192605643,-100.399947244591,Hospital,Private,"20.5844192605643,-100.399947244591","Privada Ignacio Zaragoza, Villas del Refugio, Delegación Centro Histórico, Santiago de Querétaro, Municipio de Querétaro, Querétaro, 76030, México",76030,Queretaro,2201400011316,"El Prado, Moderna, Las Misiones, Las Fuentes, San Ángel, El Carrizal, Cimatario, Casa Blanca, Estrella"
Instituto de Corazon de Queretaro,20.5844805087806,-100.400121278296,Doctor's Office,Private,"20.5844805087806,-100.400121278296","Privada Ignacio Zaragoza, Villas del Refugio, Delegación Centro Histórico, Santiago de Querétaro, Municipio de Querétaro, Querétaro, 76030, México",76030,Queretaro,2201400011316,"El Prado, Moderna, Las Misiones, Las Fuentes, San Ángel, El Carrizal, Cimatario, Casa Blanca, Estrella"
Laboratorio Medico Polanco,20.581766340250900,-100.397778434077,Medical Center,Private,"20.581766340250898,-100.397778434077","Laboratorio Médico Polanco, 69, Avenida Constituyentes, Casa Blanca, Delegación Centro Histórico, Santiago de Querétaro, Municipio de Querétaro, Querétaro, 76030, México",76030,Queretaro,2201400010483,"El Prado, Moderna, Las Misiones, Las Fuentes, San Ángel, El Carrizal, Cimatario, Casa Blanca, Estrella"
Clinicas Perifericas,20.5836139697056,-100.39457720435100,Hospital,Private,"20.5836139697056,-100.39457720435101","Avenida Constituyentes, Cimatario, Delegación Centro Histórico, Santiago de Querétaro, Municipio de Querétaro, Querétaro, 76030, México",76030,Queretaro,2201400010498,"El Prado, Moderna, Las Misiones, Las Fuentes, San Ángel, El Carrizal, Cimatario, Casa Blanca, Estrella"
Grupo Médico Integral,20.583386,-100.393095,Medical Center,Private,"20.583386,-100.393095","Tacos El Pata, Calle Fray Pedro de Gante, Cimatario, Delegación Centro Histórico, Santiago de Querétaro, Municipio de Querétaro, Querétaro, 76030, México",76030,Queretaro,2201400010498,"El Prado, Moderna, Las Misiones, Las Fuentes, San Ángel, El Carrizal, Cimatario, Casa Blanca, Estrella"
SAME Diagnostic,20.5839238283595,-100.39663959251300,Medical Center,Private,"20.5839238283595,-100.39663959251301","Calle del Cañaveral, El Carrizal, Delegación Centro Histórico, Santiago de Querétaro, Municipio de Querétaro, Querétaro, 76030, México",76030,Queretaro,2201400010411,"El Prado, Moderna, Las Misiones, Las Fuentes, San Ángel, El Carrizal, Cimatario, Casa Blanca, Estrella"
Especialidades Medicas San Miguel,20.580347,-100.394222,Doctor's Office,Private,"20.580347,-100.394222","Calle Eusebio Francisco Kino, Cimatario, Delegación Centro Histórico, Santiago de Querétaro, Municipio de Querétaro, Querétaro, 76030, México",76030,Queretaro,2201400010498,"El Prado, Moderna, Las Misiones, Las Fuentes, San Ángel, El Carrizal, Cimatario, Casa Blanca, Estrella"
Clinica fray pedro de gante,20.5821259844983,-100.392520348085,Doctor's Office,Private,"20.5821259844983,-100.392520348085","Calle Fray Pedro de Gante, Cimatario, Delegación Centro Histórico, Santiago de Querétaro, Municipio de Querétaro, Querétaro, 76030, México",76030,Queretaro,2201400010498,"El Prado, Moderna, Las Misiones, Las Fuentes, San Ángel, El Carrizal, Cimatario, Casa Blanca, Estrella"
Clinica Medica Del Rayo,20.582553993126000,-100.392547772528,Doctor's Office,Private,"20.582553993125998,-100.392547772528","Andador Fray Bartolomé De Las Casas, Cimatario, Delegación Centro Histórico, Santiago de Querétaro, Municipio de Querétaro, Querétaro, 76030, México",76030,Queretaro,2201400010498,"El Prado, Moderna, Las Misiones, Las Fuentes, San Ángel, El Carrizal, Cimatario, Casa Blanca, Estrella"
Consultorios Médicos y Odontológicos,20.5834108234032,-100.393233386295,Doctor's Office,Private,"20.5834108234032,-100.393233386295","Tacos El Pata, Calle Fray Pedro de Gante, Cimatario, Delegación Centro Histórico, Santiago de Querétaro, Municipio de Querétaro, Querétaro, 76030, México",76030,Queretaro,2201400010498,"El Prado, Moderna, Las Misiones, Las Fuentes, San Ángel, El Carrizal, Cimatario, Casa Blanca, Estrella"
Radiología y Ultrasonido Milenio,20.5837310682498,-100.393738001347,Doctor's Office,Private,"20.5837310682498,-100.393738001347","Calle Fray Vasco de Quiroga, Cimatario, Delegación Centro Histórico, Santiago de Querétaro, Municipio de Querétaro, Querétaro, 76030, México",76030,Queretaro,2201400010498,"El Prado, Moderna, Las Misiones, Las Fuentes, San Ángel, El Carrizal, Cimatario, Casa Blanca, Estrella"
Clinica Dematologica MR,20.5831904671846,-100.38993888294900,Doctor's Office,Private,"20.5831904671846,-100.38993888294901","Calle Ignacio M. de las Casas, Cimatario, Delegación Centro Histórico, Santiago de Querétaro, Municipio de Querétaro, Querétaro, 76030, México",76030,Queretaro,2201400010498,"El Prado, Moderna, Las Misiones, Las Fuentes, San Ángel, El Carrizal, Cimatario, Casa Blanca, Estrella"
Medicos Pediatras,20.5844617494344,-100.390562264373,Doctor's Office,Private,"20.5844617494344,-100.390562264373","Calle Ignacio M. de las Casas, Cimatario, Delegación Centro Histórico, Santiago de Querétaro, Municipio de Querétaro, Querétaro, 76030, México",76030,Queretaro,2201400010498,"El Prado, Moderna, Las Misiones, Las Fuentes, San Ángel, El Carrizal, Cimatario, Casa Blanca, Estrella"
Niembro y Niembro,20.58451,-100.396712,Dentist's Office,Private,"20.58451,-100.396712","Calle del Bejuco, El Carrizal, Delegación Centro Histórico, Santiago de Querétaro, Municipio de Querétaro, Querétaro, 76030, México",76030,Queretaro,2201400010411,"El Prado, Moderna, Las Misiones, Las Fuentes, San Ángel, El Carrizal, Cimatario, Casa Blanca, Estrella"
Laboratorio Biomedico de Queretaro,20.584798293226900,-100.39849358794400,Medical Lab,Private,"20.584798293226896,-100.39849358794399","Cerrada Del Carrizal, El Carrizal, Delegación Centro Histórico, Santiago de Querétaro, Municipio de Querétaro, Querétaro, 76030, México",76030,Queretaro,2201400010411,"El Prado, Moderna, Las Misiones, Las Fuentes, San Ángel, El Carrizal, Cimatario, Casa Blanca, Estrella"
Dentista Roberto Ayala,20.583027,-100.390506,Dentist's Office,Private,"20.583027,-100.390506","Calle Isidro Féliz de Espinoza, Cimatario, Delegación Centro Histórico, Santiago de Querétaro, Municipio de Querétaro, Querétaro, 76030, México",76030,Queretaro,2201400010498,"El Prado, Moderna, Las Misiones, Las Fuentes, San Ángel, El Carrizal, Cimatario, Casa Blanca, Estrella"
Laboratorio H+,20.584149134455100,-100.399931718034,Medical Lab,Private,"20.584149134455103,-100.399931718034","Privada Ignacio Zaragoza, Villas del Refugio, Delegación Centro Histórico, Santiago de Querétaro, Municipio de Querétaro, Querétaro, 76030, México",76030,Queretaro,2201400011316,"El Prado, Moderna, Las Misiones, Las Fuentes, San Ángel, El Carrizal, Cimatario, Casa Blanca, Estrella"
"ORTOQRO, Consultorio de Ortodoncia",20.5825726358122,-100.40137052536,Dentist's Office,Private,"20.5825726358122,-100.40137052536","Discepolo Gourmet, Calle Julián Zúñiga, San Ángel, Delegación Centro Histórico, Santiago de Querétaro, Municipio de Querétaro, Querétaro, 76030, México",76030,Queretaro,2201400011316,"El Prado, Moderna, Las Misiones, Las Fuentes, San Ángel, El Carrizal, Cimatario, Casa Blanca, Estrella"
san joaquin consultorios,20.581057,-100.389292,Mental Health Office,Private,"20.581057,-100.389292","Calle San Joaquín, Estrella, Delegación Centro Histórico, Santiago de Querétaro, Municipio de Querétaro, Querétaro, 76030, México",76030,Queretaro,2201400012371,"El Prado, Moderna, Las Misiones, Las Fuentes, San Ángel, El Carrizal, Cimatario, Casa Blanca, Estrella"
ADMINISTRACIÓN MEDICA INDUSTRIAL,20.568166381844900,-100.416975617409,Doctor's Office,Private,"20.568166381844897,-100.416975617409","Calle Plaza del Volador, Mansiones del Valle, Delegación Josefa Vergara y Hernández, Municipio de Querétaro, Querétaro, 79180, México",76030,Queretaro,2201400012390,"El Prado, Moderna, Las Misiones, Las Fuentes, San Ángel, El Carrizal, Cimatario, Casa Blanca, Estrella"
Hospital General Regional #1 IMSS,20.5822463742738,-100.40576732129400,Hospital,Public,"20.5822463742738,-100.40576732129401","IMSS, Avenida 5 de Febrero, Niños Héroes, Delegación Centro Histórico, Santiago de Querétaro, Municipio de Querétaro, Querétaro, 76070, México",76070,Queretaro,2201400011316,"Conjunto Terranova, El Retiro, Loma Linda, Prados del Mirador, Corregidora (Burocrata), Vista"
St. Joseph,20.583343711657500,-100.409392338053,Medical Center,Private,"20.583343711657502,-100.409392338053","SuperQ, Calle Laurel, La Capilla, Santa María Magdalena, Delegación Felipe Carrillo Puerto, Santiago de Querétaro, Municipio de Querétaro, Querétaro, 76070, México",76070,Queretaro,2201400011852,"Conjunto Terranova, El Retiro, Loma Linda, Prados del Mirador, Corregidora (Burocrata), Vista"
Direccion Del Imss HGZ1,20.5814622243191,-100.405846534725,Goverment Center,Public,"20.5814622243191,-100.405846534725","IMSS, Avenida 5 de Febrero, Niños Héroes, Delegación Centro Histórico, Santiago de Querétaro, Municipio de Querétaro, Querétaro, 76070, México",76070,Queretaro,2201400011316,"Conjunto Terranova, El Retiro, Loma Linda, Prados del Mirador, Corregidora (Burocrata), Vista"
Jefatura De Medicina Interna HGR 1 IMSS,20.5809890471516,-100.405970292066,Goverment Center,Public,"20.5809890471516,-100.405970292066","IMSS, Avenida 5 de Febrero, Niños Héroes, Delegación Centro Histórico, Santiago de Querétaro, Municipio de Querétaro, Querétaro, 76070, México",76070,Queretaro,2201400011316,"Conjunto Terranova, El Retiro, Loma Linda, Prados del Mirador, Corregidora (Burocrata), Vista"
Hospital General Querétaro,20.579968025440100,-100.405465608825,Hospital,Public,"20.579968025440103,-100.405465608825","General Ramón Rodrígez Familiar, Avenida 5 de Febrero, Virreyes, Delegación Felipe Carrillo Puerto, Santiago de Querétaro, Municipio de Querétaro, Querétaro, 76070, México",76070,Queretaro,2201400011867,"Conjunto Terranova, El Retiro, Loma Linda, Prados del Mirador, Corregidora (Burocrata), Vista"
Unidad Médica La Capilla,20.5807161330913,-100.409098963258,Hospital,Private,"20.5807161330913,-100.409098963258","35, De Los Cedros, La Capilla, Santa María Magdalena, Delegación Felipe Carrillo Puerto, Santiago de Querétaro, Municipio de Querétaro, Querétaro, 76070, México",76070,Queretaro,2201400011867,"Conjunto Terranova, El Retiro, Loma Linda, Prados del Mirador, Corregidora (Burocrata), Vista"
clina 13 UMF (Unidad de Medicina Familiar #13 IMSS),20.581304,-100.406099,Hospital,Public,"20.581304,-100.406099","IMSS, Avenida 5 de Febrero, Niños Héroes, Delegación Centro Histórico, Santiago de Querétaro, Municipio de Querétaro, Querétaro, 76070, México",76070,Queretaro,2201400011316,"Conjunto Terranova, El Retiro, Loma Linda, Prados del Mirador, Corregidora (Burocrata), Vista"
Traumatología Y Ortopedia Del HGR1 Del Imss,20.581873,-100.406207,Doctor's Office,Public,"20.581873,-100.406207","IMSS, Avenida 5 de Febrero, Niños Héroes, Delegación Centro Histórico, Santiago de Querétaro, Municipio de Querétaro, Querétaro, 76070, México",76070,Queretaro,2201400011316,"Conjunto Terranova, El Retiro, Loma Linda, Prados del Mirador, Corregidora (Burocrata), Vista"
Psiquiatría Del Hgr1 Imss Qro,20.580479,-100.40512,Doctor's Office,Public,"20.580479,-100.40512","IMSS, Avenida 5 de Febrero, Niños Héroes, Delegación Centro Histórico, Santiago de Querétaro, Municipio de Querétaro, Querétaro, 76070, México",76070,Queretaro,2201400011316,"Conjunto Terranova, El Retiro, Loma Linda, Prados del Mirador, Corregidora (Burocrata), Vista"
Laboratorio LABSA,20.5808988817326,-100.409009422329,Medical Lab,Private,"20.5808988817326,-100.409009422329","35, De Los Cedros, La Capilla, Santa María Magdalena, Delegación Felipe Carrillo Puerto, Santiago de Querétaro, Municipio de Querétaro, Querétaro, 76070, México",76070,Queretaro,2201400011867,"Conjunto Terranova, El Retiro, Loma Linda, Prados del Mirador, Corregidora (Burocrata), Vista"
A&K Medical,20.5835563834186,-100.4035621006,Doctor's Office,Private,"20.5835563834186,-100.4035621006","Avenida De la Pradera, Fraccionamiento del Prado, Delegación Centro Histórico, Santiago de Querétaro, Municipio de Querétaro, Querétaro, 76070, México",76070,Queretaro,2201400011316,"Conjunto Terranova, El Retiro, Loma Linda, Prados del Mirador, Corregidora (Burocrata), Vista"
Unidad De Investigación Epidemiológica Y En Servicios De Salud,20.582645663256600,-100.404264026062,Goverment Center,Private,"20.582645663256603,-100.404264026062","IMSS, Avenida 5 de Febrero, Niños Héroes, Delegación Centro Histórico, Santiago de Querétaro, Municipio de Querétaro, Querétaro, 76070, México",76070,Queretaro,2201400011316,"Conjunto Terranova, El Retiro, Loma Linda, Prados del Mirador, Corregidora (Burocrata), Vista"
CESAM Centro de salud mental,20.579081811845100,-100.40482388289400,Doctor's Office,Private,"20.579081811845104,-100.40482388289401","Centro Estatal de Salud Mental, Avenida 5 de Febrero, Virreyes, Delegación Felipe Carrillo Puerto, Santiago de Querétaro, Municipio de Querétaro, Querétaro, 76070, México",76070,Queretaro,2201400011867,"Conjunto Terranova, El Retiro, Loma Linda, Prados del Mirador, Corregidora (Burocrata), Vista"
Vida Care Diagnostico,20.5839730333507,-100.404489164483,Emergency Room,Private,"20.5839730333507,-100.404489164483","Circuito Del Mesón, Fraccionamiento del Prado, Delegación Centro Histórico, Santiago de Querétaro, Municipio de Querétaro, Querétaro, 76070, México",76070,Queretaro,2201400011316,"Conjunto Terranova, El Retiro, Loma Linda, Prados del Mirador, Corregidora (Burocrata), Vista"
Centro estatal de salud mental,20.579066327724,-100.404776086341,Medical Center,Public,"20.579066327724,-100.404776086341","Centro Estatal de Salud Mental, Avenida 5 de Febrero, Virreyes, Delegación Felipe Carrillo Puerto, Santiago de Querétaro, Municipio de Querétaro, Querétaro, 76070, México",76070,Queretaro,2201400011867,"Conjunto Terranova, El Retiro, Loma Linda, Prados del Mirador, Corregidora (Burocrata), Vista"
Centro Estatal de la Transfusión Sanguínea,20.5800739347527,-100.405646636186,Hospital,Public,"20.5800739347527,-100.405646636186","Hospital General de Queretaro, 5 de Febrero, La Sierrita, Santa María Magdalena, Delegación Felipe Carrillo Puerto, Santiago de Querétaro, Municipio de Querétaro, Querétaro, 76154, México",76154,Queretaro,2201400011867,El Retablo
Urgencias HGQ,20.579870063684200,-100.405674064606,Hospital,Public,"20.579870063684197,-100.405674064606","Hospital General de Queretaro, 5 de Febrero, La Sierrita, Santa María Magdalena, Delegación Felipe Carrillo Puerto, Santiago de Querétaro, Municipio de Querétaro, Querétaro, 76154, México",76154,Queretaro,2201400011867,El Retablo
Medicina Física Y Rehabilitación Dr Tonatiuh,20.5791512881536,-100.408085725667,Medical Center,Private,"20.5791512881536,-100.408085725667","Calle Virrey de Valladolid, Virreyes, Delegación Felipe Carrillo Puerto, Santiago de Querétaro, Municipio de Querétaro, Querétaro, 76176, México",76176,Queretaro,2201400011867,Prados de La Capilla
Capacits,20.578663,-100.405487,Hospital,Public,"20.578663,-100.405487","Plaza Galerias, Calle Virrey de Mendoza, Virreyes, Delegación Felipe Carrillo Puerto, Santiago de Querétaro, Municipio de Querétaro, Querétaro, 76176, México",76176,Queretaro,2201400011867,Prados de La Capilla
Clinica Dermatologica De Queretaro,20.579596,-100.408386,Doctor's Office,Private,"20.579596,-100.408386","Calle Virrey de Revillagigedo, Virreyes, Delegación Felipe Carrillo Puerto, Santiago de Querétaro, Municipio de Querétaro, Querétaro, 76176, México",76176,Queretaro,2201400011867,Prados de La Capilla
"Clinica Odontológica, UAQ",20.5798571795756,-100.411235252535,Dentist's Office,Private,"20.5798571795756,-100.411235252535","Facultad de Medicina, Prolongación Zaragoza, Ensueño, Delegación Felipe Carrillo Puerto, Santiago de Querétaro, Municipio de Querétaro, Querétaro, 76176, México",76176,Queretaro,2201400011848,Prados de La Capilla
Orthodontic Centers Of America,20.577595,-100.405443,Dentist's Office,Private,"20.577595,-100.405443","Plaza Galerias, Calle Virrey de Mendoza, Virreyes, Delegación Felipe Carrillo Puerto, Santiago de Querétaro, Municipio de Querétaro, Querétaro, 76176, México",76176,Queretaro,2201400011867,Prados de La Capilla
happy Teeth,20.573771110940900,-100.40472504611600,Dentist's Office,Private,"20.573771110940896,-100.40472504611601","Avenida Constituyentes, Lomas de Querétaro, Delegación Josefa Vergara y Hernández, Municipio de Querétaro, Querétaro, 76176, México",76176,Queretaro,2201400010568,Prados de La Capilla
Clinica de Posgrado en Endodoncia UAQ,20.5798638904154,-100.411227820968,Medical Center,Public,"20.5798638904154,-100.411227820968","Facultad de Medicina, Prolongación Zaragoza, Ensueño, Delegación Felipe Carrillo Puerto, Santiago de Querétaro, Municipio de Querétaro, Querétaro, 76176, México",76176,Queretaro,2201400011848,Prados de La Capilla
RR Capilar,20.5851840474865,-100.413547754288,Doctor's Office,Private,"20.5851840474865,-100.413547754288","Galindas Residencial, Santa María Magdalena, Delegación Felipe Carrillo Puerto, Santiago de Querétaro, Municipio de Querétaro, Querétaro, 76178, México",76178,Queretaro,2201400011570,"Ensueño, Villa las Arboledas, El Rosario, La Sandia, Residencial los Ángeles"
Nutrición,20.584412,-100.413536,Doctor's Office,Private,"20.584412,-100.413536","Prolongación Pino Suárez, Villa Jardín, Santa María Magdalena, Delegación Felipe Carrillo Puerto, Santiago de Querétaro, Corregidora, Querétaro, 76178, México",76178,Queretaro,2201400011570,"Ensueño, Villa las Arboledas, El Rosario, La Sandia, Residencial los Ángeles"
Cederborg Medicina Estetica,20.582128167868,-100.41573918263500,Doctor's Office,Private,"20.582128167868,-100.41573918263501","Avenida Hilario Frías y Soto, Ensueño, Santa María Magdalena, Delegación Felipe Carrillo Puerto, Santiago de Querétaro, Municipio de Querétaro, Querétaro, 76178, México",76178,Queretaro,2201400011848,"Ensueño, Villa las Arboledas, El Rosario, La Sandia, Residencial los Ángeles"
Clinica UVM,20.585985879162,-100.412844138262,Doctor's Office,Private,"20.585985879162,-100.412844138262","BanBajio, Avenida de Las Torres, Galindas Residencial, Santa María Magdalena, Delegación Felipe Carrillo Puerto, Santiago de Querétaro, Municipio de Querétaro, Querétaro, 76178, México",76178,Queretaro,2201400011570,"Ensueño, Villa las Arboledas, El Rosario, La Sandia, Residencial los Ángeles"
Hospital Ángeles,20.5808816462833,-100.416425516664,Hospital,Private,"20.5808816462833,-100.416425516664","37, Avenida Hilario Frías y Soto, Ensueño, Santa María Magdalena, Delegación Felipe Carrillo Puerto, Santiago de Querétaro, Municipio de Querétaro, Querétaro, 76178, México",76178,Queretaro,2201400011848,"Ensueño, Villa las Arboledas, El Rosario, La Sandia, Residencial los Ángeles"
Centro Reumatologico de Queretaro AC,20.580801,-100.417449,Medical Center,Private,"20.580801,-100.417449","104, Calle De Asunción, Residencial Los Ángeles, Santa María Magdalena, Delegación Felipe Carrillo Puerto, Santiago de Querétaro, Municipio de Querétaro, Querétaro, 76178, México",76178,Queretaro,2201400011833,"Ensueño, Villa las Arboledas, El Rosario, La Sandia, Residencial los Ángeles"
Consultorios San Francisco,20.5803035734227,-100.416443295563,Doctor's Office,Private,"20.5803035734227,-100.416443295563","25, Calle Esteban García Rebollo, Ensueño, Santa María Magdalena, Delegación Felipe Carrillo Puerto, Santiago de Querétaro, Municipio de Querétaro, Querétaro, 76178, México",76178,Queretaro,2201400011848,"Ensueño, Villa las Arboledas, El Rosario, La Sandia, Residencial los Ángeles"
Fisiolife Querétaro,20.5811189554797,-100.417090493668,Doctor's Office,Private,"20.5811189554797,-100.417090493668","104, Calle De Asunción, Residencial Los Ángeles, Santa María Magdalena, Delegación Felipe Carrillo Puerto, Santiago de Querétaro, Municipio de Querétaro, Querétaro, 76178, México",76178,Queretaro,2201400011848,"Ensueño, Villa las Arboledas, El Rosario, La Sandia, Residencial los Ángeles"
Pediatria Neonatologia,20.580196,-100.416827,Doctor's Office,Private,"20.580196,-100.416827","35, Calle Esteban García Rebollo, Ensueño, Santa María Magdalena, Delegación Felipe Carrillo Puerto, Santiago de Querétaro, Municipio de Querétaro, Querétaro, 76178, México",76178,Queretaro,2201400011848,"Ensueño, Villa las Arboledas, El Rosario, La Sandia, Residencial los Ángeles"
Consultorio Médico 58,20.580566280308900,-100.41724712988200,Doctor's Office,Private,"20.580566280308897,-100.41724712988199","105, Calle De Asunción, Residencial Los Ángeles, Santa María Magdalena, Delegación Felipe Carrillo Puerto, Santiago de Querétaro, Municipio de Querétaro, Querétaro, 76178, México",76178,Queretaro,2201400011833,"Ensueño, Villa las Arboledas, El Rosario, La Sandia, Residencial los Ángeles"
Urgencias Del Hospital Angeles De Qro,20.581108253599600,-100.416399212957,Emergency Room,Private,"20.581108253599602,-100.416399212957","37, Avenida Hilario Frías y Soto, Ensueño, Santa María Magdalena, Delegación Felipe Carrillo Puerto, Santiago de Querétaro, Municipio de Querétaro, Querétaro, 76178, México",76178,Queretaro,2201400011848,"Ensueño, Villa las Arboledas, El Rosario, La Sandia, Residencial los Ángeles"
Laboratorio Del Hospital Angeles De Queretaro,20.581009963649900,-100.416492480682,Medical Lab,Private,"20.581009963649898,-100.416492480682","37, Avenida Hilario Frías y Soto, Ensueño, Santa María Magdalena, Delegación Felipe Carrillo Puerto, Santiago de Querétaro, Municipio de Querétaro, Querétaro, 76178, México",76178,Queretaro,2201400011848,"Ensueño, Villa las Arboledas, El Rosario, La Sandia, Residencial los Ángeles"
Clínica de Rehabilitación y Fisioterapia,20.580514,-100.416436,Rehab Center,Private,"20.580514,-100.416436","23, Calle Esteban García Rebollo, Ensueño, Santa María Magdalena, Delegación Felipe Carrillo Puerto, Santiago de Querétaro, Municipio de Querétaro, Querétaro, 76178, México",76178,Queretaro,2201400011848,"Ensueño, Villa las Arboledas, El Rosario, La Sandia, Residencial los Ángeles"
Centro Dermatológico San Francisco,20.599075657031,-100.37082977945300,Medical Center,Private,"20.599075657031,-100.37082977945299","Calle Juan Caballero y Ocio, Calesa 2da Sección, Hércules, Delegación Cayetano Rubio, Santiago de Querétaro, Municipio de Querétaro, Querétaro, 76024, México",76024,Queretaro,2201400010341,"Conjunto Seminario, Karina, La Peñita, Calesa 2a Sección, El Cortijo, El Oasis, Villa Los Arcos, El Cortijo II, Del Río"
Clínica San Francisco,20.599116418626400,-100.370707441324,Hospital,Private,"20.599116418626398,-100.370707441324","Calle Juan Caballero y Ocio, Calesa 2da Sección, Hércules, Delegación Cayetano Rubio, Santiago de Querétaro, Municipio de Querétaro, Querétaro, 76024, México",76024,Queretaro,2201400010341,"Conjunto Seminario, Karina, La Peñita, Calesa 2a Sección, El Cortijo, El Oasis, Villa Los Arcos, El Cortijo II, Del Río"
Dental Expert,20.5977474416506,-100.371378578502,Dentist's Office,Private,"20.5977474416506,-100.371378578502","Super Q, Calzada de los Arcos, Calesa 2da Sección, Hércules, Delegación Cayetano Rubio, Santiago de Querétaro, Municipio de Querétaro, Querétaro, 76024, México",76024,Queretaro,2201400010341,"Conjunto Seminario, Karina, La Peñita, Calesa 2a Sección, El Cortijo, El Oasis, Villa Los Arcos, El Cortijo II, Del Río"
"OrtoClínicas, Clínica Dental Familiar",20.5992706601277,-100.369311283242,Dentist's Office,Private,"20.5992706601277,-100.369311283242","Acueducto, Calzada de los Arcos, Villas los Arcos, Hércules, Delegación Cayetano Rubio, Santiago de Querétaro, Municipio de Querétaro, Querétaro, 76024, México",76024,Queretaro,220140001084A,"Conjunto Seminario, Karina, La Peñita, Calesa 2a Sección, El Cortijo, El Oasis, Villa Los Arcos, El Cortijo II, Del Río"
IMSS Clínica No. 2 Hércules,20.5997219260803,-100.358598446303,Hospital,Public,"20.5997219260803,-100.358598446303","Avenida Hércules Oriente, Villas los Arcos, Hércules, Delegación Cayetano Rubio, Santiago de Querétaro, Municipio de Querétaro, Querétaro, 76024, México",76024,Queretaro,220140001084A,"Conjunto Seminario, Karina, La Peñita, Calesa 2a Sección, El Cortijo, El Oasis, Villa Los Arcos, El Cortijo II, Del Río"
Dicorsa Diagnóstico Computarizado en Odontologia,20.593774805052,-100.37617424478,Dentist's Office,Private,"20.593774805052,-100.37617424478","Calzada de los Arcos, San Francisquito, Delegación Centro Histórico, Santiago de Querétaro, Municipio de Querétaro, Querétaro, 76058, México",76058,Queretaro,2201400010464,San Francisquito
LABORATORIO CHOPO,20.5870105249866,-100.384699236432,Medical Lab,Private,"20.5870105249866,-100.384699236432","31, Calle San Luis Potosí, Hidalgo, Delegación Centro Histórico, Santiago de Querétaro, Municipio de Querétaro, Querétaro, 76058, México",76058,Queretaro,2201400012348,San Francisquito
ORTODONCIA PROFESIONAL,20.5925607143636,-100.378590593979,Dentist's Office,Private,"20.5925607143636,-100.378590593979","7, Calzada de los Arcos, La Pastora, Delegación Centro Histórico, Santiago de Querétaro, Municipio de Querétaro, Querétaro, 76025, México",76025,Queretaro,2201400010430,La Pastora
Laboratorios Chopo,20.590315220909400,-100.375151377297,Medical Lab,Private,"20.590315220909396,-100.375151377297","Avenida Ejército Republicano, Carretas, Delegación Centro Histórico, Santiago de Querétaro, Municipio de Querétaro, Querétaro, 76050, México",76050,Queretaro,2201400010430,Carretas
Implantoperio,20.5923250257498,-100.37313222885100,Dentist's Office,Private,"20.5923250257498,-100.37313222885099","Calle De los Monjes, Carretas, Delegación Centro Histórico, Santiago de Querétaro, Municipio de Querétaro, Querétaro, 76050, México",76050,Queretaro,2201400010464,Carretas
CEO Centro De Estudios Odontológicos,20.590293,-100.375568,Dentist's Office,Private,"20.590293,-100.375568","Avenida Ejército Republicano, Carretas, Delegación Centro Histórico, Santiago de Querétaro, Municipio de Querétaro, Querétaro, 76050, México",76050,Queretaro,2201400010430,Carretas
Wuotto Grupo Dental,20.591178812750200,-100.372826261724,Dentist's Office,Private,"20.591178812750197,-100.372826261724","Plateros, Carretas, Delegación Centro Histórico, Santiago de Querétaro, Municipio de Querétaro, Querétaro, 76050, México",76050,Queretaro,2201400010479,Carretas
Sanatorio guadalupe,20.592062065565400,-100.369067583407,Hospital,Private,"20.592062065565397,-100.369067583407","Clínica Médica Carretas, 706, Avenida de la Acordada, Carretas, Delegación Centro Histórico, Santiago de Querétaro, Municipio de Querétaro, Querétaro, 76050, México",76050,Queretaro,2201400010479,Carretas
Clinica Medica Carretas,20.5920124053955,-100.368927001953,Medical Lab,Private,"20.5920124053955,-100.368927001953","409, Avenida Puente de Alvarado, Carretas, Delegación Centro Histórico, Santiago de Querétaro, Municipio de Querétaro, Querétaro, 76050, México",76050,Queretaro,2201400010479,Carretas
Dental Lozano (dentista),20.5920772747155,-100.369085613451,Dentist's Office,Private,"20.5920772747155,-100.369085613451","Clínica Médica Carretas, 706, Avenida de la Acordada, Carretas, Delegación Centro Histórico, Santiago de Querétaro, Municipio de Querétaro, Querétaro, 76050, México",76050,Queretaro,2201400010479,Carretas
Ortodoncista Arturo Corona Cortes,20.5908001224039,-100.37052314023800,Dentist's Office,Private,"20.5908001224039,-100.37052314023799","Avenida De Las Vizcaínas, Carretas, Delegación Centro Histórico, Santiago de Querétaro, Municipio de Querétaro, Querétaro, 76050, México",76050,Queretaro,2201400010479,Carretas
Podologo,20.587774,-100.37264,Doctor's Office,Private,"20.587774,-100.37264","Estacionamiento Plaza de las Américas, Avenida Santo Domingo, Carretas, Delegación Centro Histórico, Santiago de Querétaro, Municipio de Querétaro, Querétaro, 76050, México",76050,Queretaro,2201400010445,Carretas
Grupo Oftalmológico Visión,20.5883628625974,-100.368291013789,Doctor's Office,Private,"20.5883628625974,-100.368291013789","Avenida Constituyentes, Carretas, Delegación Centro Histórico, Santiago de Querétaro, Municipio de Querétaro, Querétaro, 76050, México",76050,Queretaro,2201400010479,Carretas
Laboratorio Medico Polanco B. Quintana,20.5935288895164,-100.368701522468,Medical Center,Private,"20.5935288895164,-100.368701522468","145, Boulevard Bernardo Quintana, Loma Dorada, Hércules, Delegación Cayetano Rubio, Santiago de Querétaro, Municipio de Querétaro, Querétaro, 76060, México",76060,Queretaro,2201400010464,"Cumbres del Mirador, Loma Dorada, Milenio 3a. Sección"
Bio Vital,20.5947770394149,-100.364754338844,Medical Center,Private,"20.5947770394149,-100.364754338844","Calle Loma de San Juan, Loma Dorada, Hércules, Delegación Cayetano Rubio, Santiago de Querétaro, Municipio de Querétaro, Querétaro, 76060, México",76060,Queretaro,220140001084A,"Cumbres del Mirador, Loma Dorada, Milenio 3a. Sección"
Clinica Ginecologica y Obatetricia,20.5784977499064,-100.36013240633,Hospital,Private,"20.5784977499064,-100.36013240633","Terminal Autobuses Queretaro, Calle Terminal de Autobuses, Claustro del Marques, Delegación Josefa Vergara y Hernández, Municipio de Querétaro, Querétaro, 76060, México",76060,Queretaro,2201400012386,"Cumbres del Mirador, Loma Dorada, Milenio 3a. Sección"
Médica Inspira,20.5946587603013,-100.347827037775,Doctor's Office,Private,"20.5946587603013,-100.347827037775","Italian Coffee Company, Camino Real de Carretas, Milenio 3, Hércules, Delegación Cayetano Rubio, Santiago de Querétaro, Municipio de Querétaro, Querétaro, 76060, México",76060,Queretaro,2201400013469,"Cumbres del Mirador, Loma Dorada, Milenio 3a. Sección"
Médica Momentum,20.5947828352702,-100.347708976093,Doctor's Office,Private,"20.5947828352702,-100.347708976093","Calle Senda de la Inspiración, Milenio 3, Hércules, Delegación Cayetano Rubio, Santiago de Querétaro, Municipio de Querétaro, Querétaro, 76060, México",76060,Queretaro,2201400013469,"Cumbres del Mirador, Loma Dorada, Milenio 3a. Sección"
Laboratorio Corregidora,20.5959333558918,-100.35366663762300,Medical Lab,Private,"20.5959333558918,-100.35366663762301","Centro SOI, 302 local 12, Camino Real de Carretas, Milenio 3, Hércules, Delegación Cayetano Rubio, Santiago de Querétaro, Municipio de Querétaro, Querétaro, 76060, México",76060,Queretaro,2201400013469,"Cumbres del Mirador, Loma Dorada, Milenio 3a. Sección"
Dental de Especialidades & Medical Offices,20.595634783804400,-100.34600304698600,Dentist's Office,Private,"20.595634783804396,-100.34600304698601","Senda de la Inspiración, Milenio 3, Hércules, Delegación Cayetano Rubio, Santiago de Querétaro, Municipio de Querétaro, Querétaro, 76060, México",76060,Queretaro,2201400013469,"Cumbres del Mirador, Loma Dorada, Milenio 3a. Sección"
Clinica Quiropractica Montaño,20.5866979989822,-100.376615572806,Medical Center,Private,"20.5866979989822,-100.376615572806","92, Calle Nevado de Colima, Panamericano, Delegación Centro Histórico, Santiago de Querétaro, Municipio de Querétaro, Querétaro, 46040, México",76040,Queretaro,2201400011439,"Andalucía, Alameda, Aragón, Las Palmas, Mercurio, Observatorio, Panamericano, Valle Alameda, Villas del Sur"
Clinica Queretaro,20.587774398344600,-100.37647575715200,Doctor's Office,Private,"20.587774398344603,-100.37647575715201","336, Avenida 20 de Noviembre, Observatorio, Delegación Centro Histórico, Santiago de Querétaro, Municipio de Querétaro, Querétaro, 76040, México",76040,Queretaro,2201400010445,"Andalucía, Alameda, Aragón, Las Palmas, Mercurio, Observatorio, Panamericano, Valle Alameda, Villas del Sur"
Dentalia,20.584932,-100.381166,Dentist's Office,Private,"20.584932,-100.381166","Aurrera, Calle Pedro Escobedo, Mercurio, Delegación Centro Histórico, Santiago de Querétaro, Municipio de Querétaro, Querétaro, 76040, México",76040,Queretaro,2201400012348,"Andalucía, Alameda, Aragón, Las Palmas, Mercurio, Observatorio, Panamericano, Valle Alameda, Villas del Sur"
Dental Médica,20.5859107494037,-100.38499539523600,Dentist's Office,Private,"20.5859107494037,-100.38499539523599","Plaza Alameda, Avenida Luis Pasteur, Alameda, Delegación Centro Histórico, Santiago de Querétaro, Municipio de Querétaro, Querétaro, 76040, México",76040,Queretaro,2201400012348,"Andalucía, Alameda, Aragón, Las Palmas, Mercurio, Observatorio, Panamericano, Valle Alameda, Villas del Sur"
Clinica Dental Universitaria,20.5846565986685,-100.388110605879,Dentist's Office,Private,"20.5846565986685,-100.388110605879","21, Avenida Corregidora, Villas del Sur, Delegación Centro Histórico, Santiago de Querétaro, Municipio de Querétaro, Querétaro, 76040, México",76040,Queretaro,2201400012348,"Andalucía, Alameda, Aragón, Las Palmas, Mercurio, Observatorio, Panamericano, Valle Alameda, Villas del Sur"
Fastdent,20.582606,-100.384444,Dentist's Office,Private,"20.582606,-100.384444","Calle Monte Albán, Valle Alameda, Delegación Centro Histórico, Santiago de Querétaro, Municipio de Querétaro, Querétaro, 76040, México",76040,Queretaro,2201400010515,"Andalucía, Alameda, Aragón, Las Palmas, Mercurio, Observatorio, Panamericano, Valle Alameda, Villas del Sur"
Laboratorios Chopo,20.5867958510364,-100.383394930609,Medical Lab,Private,"20.5867958510364,-100.383394930609","15, Avenida Constituyentes, Hidalgo, Delegación Centro Histórico, Santiago de Querétaro, Municipio de Querétaro, Querétaro, 76057, México",76057,Queretaro,2201400012329,Hidalgo
Salupsic,20.583508668747,-100.387896705942,Medical Center,Private,"20.583508668747,-100.387896705942","38, Avenida Corregidora, Estrella, Delegación Centro Histórico, Santiago de Querétaro, Municipio de Querétaro, Querétaro, 76057, México",76057,Queretaro,2201400010498,Hidalgo
Dentimex,20.585009,-100.38073,Dentist's Office,Private,"20.585009,-100.38073","Puerta La Victoria, Calle Sierra de Zimapan, Villas del Sol, Delegación Centro Histórico, Santiago de Querétaro, Municipio de Querétaro, Querétaro, 76046, México",76046,Queretaro,2201400012348,"San Joaquín, Panorámico, El Laurel, Villas del Sol"
Especialidades dentales,20.5823950381582,-100.380174708705,Dentist's Office,Private,"20.5823950381582,-100.380174708705","Calle Sierra de Tilaco, Villas del Sol, Delegación Centro Histórico, Santiago de Querétaro, Municipio de Querétaro, Querétaro, 76046, México",76046,Queretaro,2201400012348,"San Joaquín, Panorámico, El Laurel, Villas del Sol"
Centro de Salud y Deporte Gómez Sainz,20.58182,-100.380385,Rehab Center,Private,"20.58182,-100.380385","Calle Sierra de Ahuacatlan, Villas del Sol, Delegación Centro Histórico, Santiago de Querétaro, Municipio de Querétaro, Querétaro, 76046, México",76046,Queretaro,2201400012348,"San Joaquín, Panorámico, El Laurel, Villas del Sol"
Centro quiropractico integral,20.607379384140800,-100.38267551057500,Doctor's Office,Private,"20.607379384140803,-100.38267551057501","1, Calle Oyamel, Álamos 2da Sección, Delegación Centro Histórico, Santiago de Querétaro, Municipio de Querétaro, Querétaro, 76160, México",76160,Queretaro,2201400010286,"Rinconada de los Alamos, Montecarlo, Privada Bugambilias, Residencial Parque del Álamo, Las Hadas, Romy, El Tepetate, Las Brujas, Álamos 1a Sección, El Cerrito, Álamos 3a Sección, Álamos 2a Sección"
Laboratorio Medico Polanco,20.614567028030900,-100.390896258585,Medical Center,Private,"20.614567028030898,-100.390896258585","Plaza del Parque, Calle Epigmenio González, Rinconada Álamos, Delegación Centro Histórico, Santiago de Querétaro, Municipio de Querétaro, Querétaro, 76160, México",76160,Queretaro,2201400011227,"Rinconada de los Alamos, Montecarlo, Privada Bugambilias, Residencial Parque del Álamo, Las Hadas, Romy, El Tepetate, Las Brujas, Álamos 1a Sección, El Cerrito, Álamos 3a Sección, Álamos 2a Sección"
Centros Euroestetica Querétaro,20.6091265990903,-100.384161472321,Medical Center,Private,"20.6091265990903,-100.384161472321","Circuito Jardín, Álamos 3ra Sección, Delegación Centro Histórico, Santiago de Querétaro, Municipio de Querétaro, Querétaro, 76160, México",76160,Queretaro,2201400010286,"Rinconada de los Alamos, Montecarlo, Privada Bugambilias, Residencial Parque del Álamo, Las Hadas, Romy, El Tepetate, Las Brujas, Álamos 1a Sección, El Cerrito, Álamos 3a Sección, Álamos 2a Sección"
Veva Palacios. Nutrición y coaching.,20.6108881480315,-100.387059914623,Doctor's Office,Private,"20.6108881480315,-100.387059914623","Club Godinez, Avenida Corregidora, Álamos 3ra Sección, Delegación Centro Histórico, Santiago de Querétaro, Municipio de Querétaro, Querétaro, 76160, México",76160,Queretaro,2201400012244,"Rinconada de los Alamos, Montecarlo, Privada Bugambilias, Residencial Parque del Álamo, Las Hadas, Romy, El Tepetate, Las Brujas, Álamos 1a Sección, El Cerrito, Álamos 3a Sección, Álamos 2a Sección"
Podologos Del Parque,20.6099861358182,-100.386733976672,Doctor's Office,Private,"20.6099861358182,-100.386733976672","Bradia, 352, Avenida Corregidora, Álamos 3ra Sección, Delegación Centro Histórico, Santiago de Querétaro, Municipio de Querétaro, Querétaro, 76160, México",76160,Queretaro,2201400012244,"Rinconada de los Alamos, Montecarlo, Privada Bugambilias, Residencial Parque del Álamo, Las Hadas, Romy, El Tepetate, Las Brujas, Álamos 1a Sección, El Cerrito, Álamos 3a Sección, Álamos 2a Sección"
Ópticas Devlyn,20.6145155344719,-100.39141789237700,Doctor's Office,Private,"20.6145155344719,-100.39141789237699","Plaza del Parque, Calle Epigmenio González, Rinconada Álamos, Delegación Centro Histórico, Santiago de Querétaro, Municipio de Querétaro, Querétaro, 76160, México",76160,Queretaro,2201400011227,"Rinconada de los Alamos, Montecarlo, Privada Bugambilias, Residencial Parque del Álamo, Las Hadas, Romy, El Tepetate, Las Brujas, Álamos 1a Sección, El Cerrito, Álamos 3a Sección, Álamos 2a Sección"
Medicina de Rehabilitación,20.609936453482400,-100.38298150811,Doctor's Office,Private,"20.609936453482398,-100.38298150811","Circuito Jardín, Álamos 3ra Sección, Delegación Centro Histórico, Santiago de Querétaro, Municipio de Querétaro, Querétaro, 76160, México",76160,Queretaro,2201400010286,"Rinconada de los Alamos, Montecarlo, Privada Bugambilias, Residencial Parque del Álamo, Las Hadas, Romy, El Tepetate, Las Brujas, Álamos 1a Sección, El Cerrito, Álamos 3a Sección, Álamos 2a Sección"
Ópticas Devlyn,20.6151913498132,-100.392032194398,Doctor's Office,Private,"20.6151913498132,-100.392032194398","Plaza del Parque, Calle Epigmenio González, Rinconada Álamos, Delegación Centro Histórico, Santiago de Querétaro, Municipio de Querétaro, Querétaro, 76160, México",76160,Queretaro,2201400011227,"Rinconada de los Alamos, Montecarlo, Privada Bugambilias, Residencial Parque del Álamo, Las Hadas, Romy, El Tepetate, Las Brujas, Álamos 1a Sección, El Cerrito, Álamos 3a Sección, Álamos 2a Sección"
Clinica Dental Orthodenth,20.613718,-100.386286,Dentist's Office,Private,"20.613718,-100.386286","Plaza Cobé, 11, Circuito Jardín, Álamos 3ra Sección, Delegación Centro Histórico, Santiago de Querétaro, Municipio de Querétaro, Querétaro, 76160, México",76160,Queretaro,2201400012244,"Rinconada de los Alamos, Montecarlo, Privada Bugambilias, Residencial Parque del Álamo, Las Hadas, Romy, El Tepetate, Las Brujas, Álamos 1a Sección, El Cerrito, Álamos 3a Sección, Álamos 2a Sección"
Alfadent,20.615875650393700,-100.389651797308,Dentist's Office,Private,"20.615875650393697,-100.389651797308","Lateral Bernardo Quintana, Rinconada Álamos, Delegación Centro Histórico, Santiago de Querétaro, Municipio de Querétaro, Querétaro, 76160, México",76160,Queretaro,2201400012244,"Rinconada de los Alamos, Montecarlo, Privada Bugambilias, Residencial Parque del Álamo, Las Hadas, Romy, El Tepetate, Las Brujas, Álamos 1a Sección, El Cerrito, Álamos 3a Sección, Álamos 2a Sección"
Laboratorio Medico Polanco Plaza del Parque,20.6145909134953,-100.390836503236,Medical Lab,Private,"20.6145909134953,-100.390836503236","Plaza del Parque, Calle Epigmenio González, Rinconada Álamos, Delegación Centro Histórico, Santiago de Querétaro, Municipio de Querétaro, Querétaro, 76160, México",76160,Queretaro,2201400011227,"Rinconada de los Alamos, Montecarlo, Privada Bugambilias, Residencial Parque del Álamo, Las Hadas, Romy, El Tepetate, Las Brujas, Álamos 1a Sección, El Cerrito, Álamos 3a Sección, Álamos 2a Sección"
Chopo,20.6099851421627,-100.38675043028400,Medical Lab,Private,"20.6099851421627,-100.38675043028401","Bradia, 352, Avenida Corregidora, Álamos 3ra Sección, Delegación Centro Histórico, Santiago de Querétaro, Municipio de Querétaro, Querétaro, 76160, México",76160,Queretaro,2201400012244,"Rinconada de los Alamos, Montecarlo, Privada Bugambilias, Residencial Parque del Álamo, Las Hadas, Romy, El Tepetate, Las Brujas, Álamos 1a Sección, El Cerrito, Álamos 3a Sección, Álamos 2a Sección"
Clinica Dental Centauro,20.6141786022648,-100.391112485182,Dentist's Office,Private,"20.6141786022648,-100.391112485182","Plaza del Parque, Calle Epigmenio González, Rinconada Álamos, Delegación Centro Histórico, Santiago de Querétaro, Municipio de Querétaro, Querétaro, 76160, México",76160,Queretaro,2201400011227,"Rinconada de los Alamos, Montecarlo, Privada Bugambilias, Residencial Parque del Álamo, Las Hadas, Romy, El Tepetate, Las Brujas, Álamos 1a Sección, El Cerrito, Álamos 3a Sección, Álamos 2a Sección"
Ópticas Devlyn,20.6172021112532,-100.396052684714,Doctor's Office,Private,"20.6172021112532,-100.396052684714","Lateral Bernardo Quintana, Alamos del Lago, Delegación Epigmenio González, Santiago de Querétaro, Municipio de Querétaro, Querétaro, 76160, México",76160,Queretaro,2201400010816,"Rinconada de los Alamos, Montecarlo, Privada Bugambilias, Residencial Parque del Álamo, Las Hadas, Romy, El Tepetate, Las Brujas, Álamos 1a Sección, El Cerrito, Álamos 3a Sección, Álamos 2a Sección"
Núcleo Médico Lomas De Casa Blanca,20.573244,-100.394348,Medical Center,Private,"20.573244,-100.394348","Calle 27, Lomas de Casa Blanca, Delegación Josefa Vergara y Hernández, Municipio de Querétaro, Querétaro, 76080, México",76080,Queretaro,2201400010572,"Lomas de Casa Blanca, Presidentes"
Santorio Querétaro,20.572766,-100.389639,Hospital,Private,"20.572766,-100.389639","Calle 11, Lomas de Casa Blanca, Delegación Josefa Vergara y Hernández, Municipio de Querétaro, Querétaro, 76080, México",76080,Queretaro,2201400010587,"Lomas de Casa Blanca, Presidentes"
Clínica Dental PreVé,20.5739521490514,-100.387406945229,Dentist's Office,Private,"20.5739521490514,-100.387406945229","Calle 1, Lomas de Casa Blanca, Delegación Josefa Vergara y Hernández, Municipio de Querétaro, Querétaro, 76080, México",76080,Queretaro,2201400010587,"Lomas de Casa Blanca, Presidentes"
Unidad Médica de Atención Ambulatoria IMSS,20.5719860651731,-100.40001933139,Medical Center,Public,"20.5719860651731,-100.40001933139","Unidad Médica de Atención Ambulatoria, Calle 4, Lomas de Querétaro, Delegación Josefa Vergara y Hernández, Municipio de Querétaro, Querétaro, 76190, México",76190,Queretaro,2201400010873,"Rincón de San Antonio, Los Pilares, Del Valle, Club Campestre, Lomas de Queretaro"
Hospital del Niño y la Mujer,20.578333634835100,-100.370247164466,Hospital,Public,"20.578333634835104,-100.370247164466","Hospital del Niño y la Mujer, Avenida Luis Vega y Monroy, Plazas del Sol Primera Sección, Delegación Josefa Vergara y Hernández, Municipio de Querétaro, Querétaro, 76099, México",76099,Queretaro,2201400010869,"Plazas del Sol 2a Sección, Plazas del Sol 1a Sección, Plazas del Sol 3a Sección"
Ultrasonido Médico de Quéretaro (UMQ),20.5773691824448,-100.37330882795600,Doctor's Office,Private,"20.5773691824448,-100.37330882795601","Scottiabank, Avenida Luis Vega y Monroy, Plazas del Sol Primera Sección, Delegación Josefa Vergara y Hernández, Municipio de Querétaro, Querétaro, 76099, México",76099,Queretaro,2201400010869,"Plazas del Sol 2a Sección, Plazas del Sol 1a Sección, Plazas del Sol 3a Sección"
LUAN,20.571785,-100.371901,Dentist's Office,Private,"20.571785,-100.371901","Calle Cerro De La Estrella, Privada Colinas, Delegación Josefa Vergara y Hernández, Municipio de Querétaro, Querétaro, 76099, México",76099,Queretaro,220140001091A,"Plazas del Sol 2a Sección, Plazas del Sol 1a Sección, Plazas del Sol 3a Sección"
Clínica Dental Especializada,20.5731237806338,-100.37158147210000,Dentist's Office,Private,"20.5731237806338,-100.37158147209999","108, Calle Cerro Azul, Privada Colinas, Delegación Josefa Vergara y Hernández, Municipio de Querétaro, Querétaro, 76099, México",76099,Queretaro,220140001091A,"Plazas del Sol 2a Sección, Plazas del Sol 1a Sección, Plazas del Sol 3a Sección"
Instituto Mexicano De Oftalmologia I.A.P.,20.5754326536473,-100.36323758463700,Doctor's Office,Public,"20.5754326536473,-100.36323758463699","Claustro del Marques, Delegación Josefa Vergara y Hernández, Municipio de Querétaro, Querétaro, 76099, México",76099,Queretaro,2201400012386,"Plazas del Sol 2a Sección, Plazas del Sol 1a Sección, Plazas del Sol 3a Sección"
Unidad De Medicina Familiar # 16,20.587474403164000,-100.371839202463,Medical Center,Public,"20.587474403164002,-100.371839202463","Clínica del IMSS #16, Avenida Constituyentes, El Marqués, Delegación Centro Histórico, Santiago de Querétaro, Municipio de Querétaro, Querétaro, 76047, México",76047,Queretaro,2201400011284,"El Marqués, Quintas del Marqués"
Cruz Roja Mexicana,20.5801443621828,-100.36441384000900,Medical Center,Public,"20.5801443621828,-100.36441384000901","Calle Estadio, Claustro del Marques, Delegación Josefa Vergara y Hernández, Municipio de Querétaro, Querétaro, 76047, México",76047,Queretaro,2201400010869,"El Marqués, Quintas del Marqués"
Vázquez Quiropedistas,20.582351668157900,-100.367258191109,Medical Center,Private,"20.582351668157898,-100.367258191109","Calle Fray Andrés de Córdoba, Quintas del Marqués, Delegación Centro Histórico, Santiago de Querétaro, Municipio de Querétaro, Querétaro, 76047, México",76047,Queretaro,2201400011299,"El Marqués, Quintas del Marqués"
Hospital Punta Sur,20.579818552157,-100.36412685875600,Hospital,Private,"20.579818552157,-100.36412685875601","Calle Estadio, Claustro del Marques, Delegación Josefa Vergara y Hernández, Municipio de Querétaro, Querétaro, 76047, México",76047,Queretaro,2201400012386,"El Marqués, Quintas del Marqués"
Clínica Las Américas,20.5867195444724,-100.369846399289,Doctor's Office,Private,"20.5867195444724,-100.369846399289","Calle Fray Rivero Payo, Quintas del Marqués, Delegación Centro Histórico, Santiago de Querétaro, Municipio de Querétaro, Querétaro, 76047, México",76047,Queretaro,2201400011284,"El Marqués, Quintas del Marqués"
Medica Centro Sur,20.5787943232772,-100.36077468662000,Hospital,Private,"20.5787943232772,-100.36077468661999","Boulevard Bernardo Quintana, Claustro del Marques, Delegación Josefa Vergara y Hernández, Municipio de Querétaro, Querétaro, 76047, México",76047,Queretaro,2201400012386,"El Marqués, Quintas del Marqués"
UNEME DEDICAM,20.576515317136600,-100.369484317675,Medical Center,Private,"20.576515317136604,-100.369484317675","Avenida Fray Luis de León, Rinconada del Sur, Delegación Josefa Vergara y Hernández, Municipio de Querétaro, Querétaro, 76090, México",76090,Queretaro,2201400010869,"Centro Sur, Colinas del Cimatario"
Cancerologia de Queretaro,20.5596586663107,-100.36617478776200,Medical Center,Private,"20.5596586663107,-100.36617478776199","414, Avenida Colinas del Cimatario, Fraccionamiento Monte Blanco II, Delegación Josefa Vergara y Hernández, Municipio de Querétaro, Querétaro, 76090, México",76090,Queretaro,2201400011890,"Centro Sur, Colinas del Cimatario"
Insefer Instituto De Fertilidad,20.56141882,-100.36164809,Hospital,Private,"20.56141882,-100.36164809","Calle Licenciado Manuel Gómez Morín, Rinconada del Sur, Delegación Josefa Vergara y Hernández, Municipio de Querétaro, Querétaro, 76090, México",76090,Queretaro,2201400013488,"Centro Sur, Colinas del Cimatario"
Torre Médica Centro Sur,20.55990009855,-100.366361705232,Doctor's Office,Private,"20.55990009855,-100.366361705232","Torre médica Del Sur, 401, Avenida Colinas del Cimatario, Fraccionamiento Monte Blanco, Delegación Josefa Vergara y Hernández, Municipio de Querétaro, Querétaro, 76090, México",76090,Queretaro,2201400013488,"Centro Sur, Colinas del Cimatario"
dentalia,20.5730020442783,-100.361563460083,Dentist's Office,Private,"20.5730020442783,-100.361563460083","Avenida Armando Birlain Shaffler, Claustro del Marques, Delegación Josefa Vergara y Hernández, Municipio de Querétaro, Querétaro, 76090, México",76090,Queretaro,2201400013488,"Centro Sur, Colinas del Cimatario"
INSEMER,20.5596405137055,-100.36049365997300,Doctor's Office,Private,"20.5596405137055,-100.36049365997299","Rinconada del Sur, Delegación Josefa Vergara y Hernández, Municipio de Querétaro, Querétaro, 76090, México",76090,Queretaro,2201400013488,"Centro Sur, Colinas del Cimatario"
Clinica Dental Universidad Cuauhtemoc,20.589524160769900,-100.36249009321000,Dentist's Office,Public,"20.589524160769898,-100.36249009320998","Universidad Cuauhtemoc, Avenida Constituyentes, Vista Dorada, Hércules, Delegación Cayetano Rubio, Santiago de Querétaro, Municipio de Querétaro, Querétaro, 76049, México",76049,Queretaro,2201400010479,Loma Bonita
Clínica de Especialidades Dentales Milenio,20.596153309587100,-100.35839433710500,Dentist's Office,Private,"20.596153309587102,-100.35839433710501","Camino Real de Carretas, Milenio 3, Hércules, Delegación Cayetano Rubio, Santiago de Querétaro, Municipio de Querétaro, Querétaro, 76069, México",76069,Queretaro,2201400013469,"San José de los Perales, La Cuesta, La Estación, Nuevo Morelos, La Estación 2a. Sección, Bugambilias, Hércules, Tejas, El Limonar, El Bosque, 2 de Abril, Jardines de Hércules, 8 de Diciembre"
La Marquesa Clinica Dental Y Medica,20.6009288413646,-100.347889875121,Dentist's Office,Private,"20.6009288413646,-100.347889875121","Avenida Fundadores, 8 de diciembre, Hércules, Delegación Cayetano Rubio, Santiago de Querétaro, Municipio de Querétaro, Querétaro, 76069, México",76069,Queretaro,2201400012282,"San José de los Perales, La Cuesta, La Estación, Nuevo Morelos, La Estación 2a. Sección, Bugambilias, Hércules, Tejas, El Limonar, El Bosque, 2 de Abril, Jardines de Hércules, 8 de Diciembre"
Torre Médica del Sur,20.5716475324122,-100.37922670121700,Hospital,Private,"20.5716475324122,-100.37922670121701","Calle Plaza Capuchinas, Loma Linda, Delegación Josefa Vergara y Hernández, Municipio de Querétaro, Querétaro, 76048, México",76048,Queretaro,2201400012418,Arquitos
Clinicos EUREKA,20.558429353548100,-100.397324167018,Medical Center,Private,"20.558429353548103,-100.397324167018","Tortillería Garcia, Boulevard de Las Américas, Reforma Agraria Segunda Sección, Delegación Josefa Vergara y Hernández, Municipio de Querétaro, Querétaro, 76048, México",76048,Queretaro,2201400012441,Arquitos
Jurisdiccion Sanitaria 1,20.571737862628600,-100.385179121823,Goverment Center,Private,"20.571737862628602,-100.385179121823","Calle San Diego De Los Padres, Vista Alegre 2da Secc., Delegación Josefa Vergara y Hernández, Municipio de Querétaro, Querétaro, 76074, México",76074,Queretaro,2201400010657,"La Alhambra, Vista Alegre, Vista Alegre 2a Secc, Vista Alegre 3a Sección, Palomar del Duque"
Clínica de Especialidades Médicas Colinas del Cimatario,20.5621566772461,-100.371055603027,Doctor's Office,Private,"20.5621566772461,-100.371055603027","Clínica de Especialidades Médicas, Calle Cerro Del Acutzingo, La Alhambra, Delegación Josefa Vergara y Hernández, Municipio de Querétaro, Querétaro, 76074, México",76074,Queretaro,2201400011890,"La Alhambra, Vista Alegre, Vista Alegre 2a Secc, Vista Alegre 3a Sección, Palomar del Duque"
Centro de Salud Lázaro Cárdenas,20.5571978199289,-100.38197352411500,Doctor's Office,Private,"20.5571978199289,-100.38197352411501","Centro De Salud, Calle Licenciado Carlos A. Madrazo, Lázaro Cádenas, Delegación Josefa Vergara y Hernández, Municipio de Querétaro, Querétaro, 76087, México",76087,Queretaro,2201400011087,"Huertas del Cimatario, Linderos del Cimatario, Prados de Queretaro, Bosques de las Lomas, Pedregal del Cimatario, Raquel Trejo Ortiz, Bellavista, Manantiales del Cimatario, Prados del Cimatario, Monte Blanco II, Monte Blanco III, Misión Cimatario, Jardines del Cimatario, San Andrés, Comerciantes, Lázaro Cárdenas, Lomas de Pasteur, Monte Blanco I, Vista Azul, Villas del Rincón, Constelación, Villas del Cimatario, Zapata Vive, Bosques de Queretaro, Unidad Roma, Cuitlahuac, Praderas del Sol, Campestre Italiana, Bosques del Cimatario 2a. Sección"
CONSULTORIO DENTAL KENIA MARIA SANCHEZ CARRASCO,20.5583245493927,-100.38152217865,Dentist's Office,Private,"20.5583245493927,-100.38152217865","Calle Alfredo V. Bonfil, Lázaro Cádenas, Delegación Josefa Vergara y Hernández, Municipio de Querétaro, Querétaro, 76087, México",76087,Queretaro,2201400011087,"Huertas del Cimatario, Linderos del Cimatario, Prados de Queretaro, Bosques de las Lomas, Pedregal del Cimatario, Raquel Trejo Ortiz, Bellavista, Manantiales del Cimatario, Prados del Cimatario, Monte Blanco II, Monte Blanco III, Misión Cimatario, Jardines del Cimatario, San Andrés, Comerciantes, Lázaro Cárdenas, Lomas de Pasteur, Monte Blanco I, Vista Azul, Villas del Rincón, Constelación, Villas del Cimatario, Zapata Vive, Bosques de Queretaro, Unidad Roma, Cuitlahuac, Praderas del Sol, Campestre Italiana, Bosques del Cimatario 2a. Sección"
Clínica Dental San Gabriel,20.557365175505300,-100.378090760021,Dentist's Office,Private,"20.557365175505304,-100.378090760021","Circuito Lázaro Cárdenas, Constelación, Delegación Josefa Vergara y Hernández, Municipio de Querétaro, Querétaro, 76087, México",76087,Queretaro,2201400011087,"Huertas del Cimatario, Linderos del Cimatario, Prados de Queretaro, Bosques de las Lomas, Pedregal del Cimatario, Raquel Trejo Ortiz, Bellavista, Manantiales del Cimatario, Prados del Cimatario, Monte Blanco II, Monte Blanco III, Misión Cimatario, Jardines del Cimatario, San Andrés, Comerciantes, Lázaro Cárdenas, Lomas de Pasteur, Monte Blanco I, Vista Azul, Villas del Rincón, Constelación, Villas del Cimatario, Zapata Vive, Bosques de Queretaro, Unidad Roma, Cuitlahuac, Praderas del Sol, Campestre Italiana, Bosques del Cimatario 2a. Sección"
Centro Medico Cubano,20.548983,-100.383385,Rehab Center,Private,"20.548983,-100.383385","Calle Meteorito, Universo 2000, Delegación Josefa Vergara y Hernández, Municipio de Querétaro, Querétaro, 76087, México",76087,Queretaro,2201400013026,"Huertas del Cimatario, Linderos del Cimatario, Prados de Queretaro, Bosques de las Lomas, Pedregal del Cimatario, Raquel Trejo Ortiz, Bellavista, Manantiales del Cimatario, Prados del Cimatario, Monte Blanco II, Monte Blanco III, Misión Cimatario, Jardines del Cimatario, San Andrés, Comerciantes, Lázaro Cárdenas, Lomas de Pasteur, Monte Blanco I, Vista Azul, Villas del Rincón, Constelación, Villas del Cimatario, Zapata Vive, Bosques de Queretaro, Unidad Roma, Cuitlahuac, Praderas del Sol, Campestre Italiana, Bosques del Cimatario 2a. Sección"
Clinica ISSSTE La Azteca,20.558037288902600,-100.384304359536,Hospital,Public,"20.558037288902604,-100.384304359536","Calle Chimalpopoca, Azteca, Delegación Josefa Vergara y Hernández, Municipio de Querétaro, Querétaro, 76230, México",76230,Queretaro,2201400012992,"Juriquilla Santa Fe, Caletto, Independencia, Azteca, Nuevo Juriquilla, Jurica Acueducto, Los Naranjos, Paraíso Diamante, Nuevo Paraíso, Mayoral 1 y 2, La Solana, Altavista Juriquilla, Rancho Largo, Juriquilla Privada, San Francisco Juriquilla, Jurica Tolimán, La Cañada Juriquilla, Balcones de Juriquilla, Cumbres del Lago, Rinconada Santini, Hacienda Grande, Colinas de Juriquilla, Punta Juriquilla, Jurica La Solana, Paseo del Piropo"
Pabellón médico juriquilla,20.708808968670100,-100.448224461975,Medical Center,Private,"20.708808968670102,-100.448224461975","Plaza Calixe, 523, Calle R. M. Clemencia Borja Taboada, Delegaciön Santa Rosa Jáuregui, Juriquilla, Municipio de Querétaro, Querétaro, 76230, México",76230,Queretaro,2201400583740,"Juriquilla Santa Fe, Caletto, Independencia, Azteca, Nuevo Juriquilla, Jurica Acueducto, Los Naranjos, Paraíso Diamante, Nuevo Paraíso, Mayoral 1 y 2, La Solana, Altavista Juriquilla, Rancho Largo, Juriquilla Privada, San Francisco Juriquilla, Jurica Tolimán, La Cañada Juriquilla, Balcones de Juriquilla, Cumbres del Lago, Rinconada Santini, Hacienda Grande, Colinas de Juriquilla, Punta Juriquilla, Jurica La Solana, Paseo del Piropo"
Médica Vial Nexus,20.614509043438,-100.486404352117,Hospital,Private,"20.614509043438,-100.486404352117","Privada Paseo Natura Iv, Prados del Rincón, Viñedos, Delegación Felipe Carrillo Puerto, San Pedro Mártir, Municipio de Querétaro, Querétaro, 76230, México",76230,Queretaro,220140001472A,"Juriquilla Santa Fe, Caletto, Independencia, Azteca, Nuevo Juriquilla, Jurica Acueducto, Los Naranjos, Paraíso Diamante, Nuevo Paraíso, Mayoral 1 y 2, La Solana, Altavista Juriquilla, Rancho Largo, Juriquilla Privada, San Francisco Juriquilla, Jurica Tolimán, La Cañada Juriquilla, Balcones de Juriquilla, Cumbres del Lago, Rinconada Santini, Hacienda Grande, Colinas de Juriquilla, Punta Juriquilla, Jurica La Solana, Paseo del Piropo"
Dentista,20.5570201292293,-100.388494530113,Dentist's Office,Private,"20.5570201292293,-100.388494530113","Calle El Salvador, El Marques Queretano, Delegación Josefa Vergara y Hernández, Municipio de Querétaro, Querétaro, 76085, México",76085,Queretaro,2201400011903,"Lomas del Valle, La Unión, Vistas del Cimatario, Bosques del Cimatario, Rincón del Cimatario, Altos del Cimatario, Fraternidad de Santiago, Lázaro Cárdenas III, Universo 2000, Azteca, Arte Mexicano, Colinas del Sur, Lomas del Cimatario, El Marqués Queretano"
Medical Center Juriquilla,20.6832037247612,-100.452682101508,Medical Center,Private,"20.6832037247612,-100.452682101508","Paseo del Mesón, La campana, Delegación Félix Osores, Cumbres del Lago, Municipio de Querétaro, Querétaro, 76100, México",76100,Queretaro,2201400012672,"Murano, Las Campanas, Privada de los Portones, Jurica, Jurica Pinar, Gobernantes, Jurica, Valle de Juriquilla, Rinconada Jurica, El Bordo, Hacienda Juriquilla Santa Fe, Bleu Casas Platina, Jurica, Santa Rosa, Vive, Dolce Terra, El Destino, Valle Garden, La Castellana, Atenas"
Centro De Salud Jurica,20.6765370340526,-100.458681257451,Doctor's Office,Private,"20.6765370340526,-100.458681257451","22, Calle Lirios, Gobernantes, Delegación Félix Osores, Santiago de Querétaro, Municipio de Querétaro, Querétaro, 76100, México",76100,Queretaro,2201400012691,"Murano, Las Campanas, Privada de los Portones, Jurica, Jurica Pinar, Gobernantes, Jurica, Valle de Juriquilla, Rinconada Jurica, El Bordo, Hacienda Juriquilla Santa Fe, Bleu Casas Platina, Jurica, Santa Rosa, Vive, Dolce Terra, El Destino, Valle Garden, La Castellana, Atenas"
Clinica Estetica Dental,20.670780896457,-100.45098067453000,Dentist's Office,Private,"20.670780896457,-100.45098067452999","Avenida Jacarandas, La campana, Delegación Félix Osores, Santiago de Querétaro, Municipio de Querétaro, Querétaro, 76100, México",76100,Queretaro,2201400011617,"Murano, Las Campanas, Privada de los Portones, Jurica, Jurica Pinar, Gobernantes, Jurica, Valle de Juriquilla, Rinconada Jurica, El Bordo, Hacienda Juriquilla Santa Fe, Bleu Casas Platina, Jurica, Santa Rosa, Vive, Dolce Terra, El Destino, Valle Garden, La Castellana, Atenas"
Unidad de Resonancia Magnética,20.705208320726900,-100.446408933177,Medical Center,Private,"20.705208320726896,-100.446408933177","Circuito UNAM, Delegaciön Santa Rosa Jáuregui, Juriquilla, Municipio de Querétaro, Querétaro, 76100, México",76100,Queretaro,2201400583774,"Murano, Las Campanas, Privada de los Portones, Jurica, Jurica Pinar, Gobernantes, Jurica, Valle de Juriquilla, Rinconada Jurica, El Bordo, Hacienda Juriquilla Santa Fe, Bleu Casas Platina, Jurica, Santa Rosa, Vive, Dolce Terra, El Destino, Valle Garden, La Castellana, Atenas"
Santé Centro Médico Juriquilla,20.7068261753706,-100.44632434845000,Doctor's Office,Private,"20.7068261753706,-100.44632434844999","Boulevard Universitario, Delegaciön Santa Rosa Jáuregui, Juriquilla, Municipio de Querétaro, Querétaro, 76100, México",76100,Queretaro,2201400583740,"Murano, Las Campanas, Privada de los Portones, Jurica, Jurica Pinar, Gobernantes, Jurica, Valle de Juriquilla, Rinconada Jurica, El Bordo, Hacienda Juriquilla Santa Fe, Bleu Casas Platina, Jurica, Santa Rosa, Vive, Dolce Terra, El Destino, Valle Garden, La Castellana, Atenas"
Torre Medica Medici,20.7099088566399,-100.447486772478,Doctor's Office,Private,"20.7099088566399,-100.447486772478","Calle Acueducto De Zacatecas, Delegaciön Santa Rosa Jáuregui, Juriquilla, Municipio de Querétaro, Querétaro, 76100, México",76100,Queretaro,2201400583740,"Murano, Las Campanas, Privada de los Portones, Jurica, Jurica Pinar, Gobernantes, Jurica, Valle de Juriquilla, Rinconada Jurica, El Bordo, Hacienda Juriquilla Santa Fe, Bleu Casas Platina, Jurica, Santa Rosa, Vive, Dolce Terra, El Destino, Valle Garden, La Castellana, Atenas"
Laboratorio Corregidora,20.707311630249,-100.44708251953100,Medical Lab,Private,"20.707311630249,-100.44708251953101","Calle R. M. Clemencia Borja Taboada, Delegaciön Santa Rosa Jáuregui, Juriquilla, Municipio de Querétaro, Querétaro, 76100, México",76100,Queretaro,2201400583740,"Murano, Las Campanas, Privada de los Portones, Jurica, Jurica Pinar, Gobernantes, Jurica, Valle de Juriquilla, Rinconada Jurica, El Bordo, Hacienda Juriquilla Santa Fe, Bleu Casas Platina, Jurica, Santa Rosa, Vive, Dolce Terra, El Destino, Valle Garden, La Castellana, Atenas"
NeiDent,20.7068604651007,-100.446760175266,Dentist's Office,Private,"20.7068604651007,-100.446760175266","Delegaciön Santa Rosa Jáuregui, Juriquilla, Municipio de Querétaro, Querétaro, 76100, México",76100,Queretaro,2201400583740,"Murano, Las Campanas, Privada de los Portones, Jurica, Jurica Pinar, Gobernantes, Jurica, Valle de Juriquilla, Rinconada Jurica, El Bordo, Hacienda Juriquilla Santa Fe, Bleu Casas Platina, Jurica, Santa Rosa, Vive, Dolce Terra, El Destino, Valle Garden, La Castellana, Atenas"
Laboratorio Chopo,20.7055541220565,-100.443900884559,Medical Lab,Private,"20.7055541220565,-100.443900884559","Starbucks Juriquilla, Avenida de las Ciencias, Delegaciön Santa Rosa Jáuregui, Juriquilla, Municipio de Querétaro, Querétaro, 76100, México",76100,Queretaro,2201400583740,"Murano, Las Campanas, Privada de los Portones, Jurica, Jurica Pinar, Gobernantes, Jurica, Valle de Juriquilla, Rinconada Jurica, El Bordo, Hacienda Juriquilla Santa Fe, Bleu Casas Platina, Jurica, Santa Rosa, Vive, Dolce Terra, El Destino, Valle Garden, La Castellana, Atenas"
dentalia,20.70586562633,-100.44378014873300,Dentist's Office,Private,"20.70586562633,-100.44378014873301","Radio Shack Juriquilla, Avenida de las Ciencias, Delegaciön Santa Rosa Jáuregui, Juriquilla, Municipio de Querétaro, Querétaro, 76100, México",76100,Queretaro,2201400583740,"Murano, Las Campanas, Privada de los Portones, Jurica, Jurica Pinar, Gobernantes, Jurica, Valle de Juriquilla, Rinconada Jurica, El Bordo, Hacienda Juriquilla Santa Fe, Bleu Casas Platina, Jurica, Santa Rosa, Vive, Dolce Terra, El Destino, Valle Garden, La Castellana, Atenas"
Family Chiropractic,20.7075752283183,-100.446798592451,Chiropractor,Private,"20.7075752283183,-100.446798592451","Boulevard Universitario, Delegaciön Santa Rosa Jáuregui, Juriquilla, Municipio de Querétaro, Querétaro, 76100, México",76100,Queretaro,2201400583740,"Murano, Las Campanas, Privada de los Portones, Jurica, Jurica Pinar, Gobernantes, Jurica, Valle de Juriquilla, Rinconada Jurica, El Bordo, Hacienda Juriquilla Santa Fe, Bleu Casas Platina, Jurica, Santa Rosa, Vive, Dolce Terra, El Destino, Valle Garden, La Castellana, Atenas"
Dra. Uranga,20.6157371367001,-100.444872264986,Doctor's Office,Private,"20.6157371367001,-100.444872264986","Calle Beta Centauro, El Sol, Santa María Magdalena, Delegación Felipe Carrillo Puerto, Santiago de Querétaro, Municipio de Querétaro, Querétaro, 76113, México",76113,Queretaro,2201400011689,"Rancho San Pedro, Valle de San Pedro, El Arcángel, Tonatiuh 3a Sección, Tonatiuh 2a. Sección, Tonatiú, Tonatiuh 4a Sección, Alborada, Plan Santa María, Valle de San Pedro 2a Sección, Los Framboyanes, La Luna, Bosques del Sol, Rinconada del Sol, El Sol Residencial, El Sol, Santa Isabel"
Hospital Santo Tomás,20.6264363853465,-100.46226557123000,Hospital,Private,"20.6264363853465,-100.46226557122999","Hospital Santo Tomas, 2906, Prolongación Bernardo Quintana, Residencial Arcangel 3, Delegación Félix Osores, Santiago de Querétaro, Municipio de Querétaro, Querétaro, 76113, México",76113,Queretaro,2201400013647,"Rancho San Pedro, Valle de San Pedro, El Arcángel, Tonatiuh 3a Sección, Tonatiuh 2a. Sección, Tonatiú, Tonatiuh 4a Sección, Alborada, Plan Santa María, Valle de San Pedro 2a Sección, Los Framboyanes, La Luna, Bosques del Sol, Rinconada del Sol, El Sol Residencial, El Sol, Santa Isabel"
Hospital San José,20.614985241089000,-100.43927496487800,Hospital,Private,"20.614985241089002,-100.43927496487801","El sol, Calle Bosques De Mesquite, Fraccionamiento Bosques del Sol, Santa María Magdalena, Delegación Felipe Carrillo Puerto, Santiago de Querétaro, Municipio de Querétaro, Querétaro, 76114, México",76114,Queretaro,2201400011689,"Los Castaños, Sendero, Lomas del Carmen, La Huerta, El Rocio II, Don Manuel, Puerta del Sol II, Los Sauces, El Rocio"
Clinica Dental El Rocio,20.6203991042525,-100.440350220666,Dentist's Office,Private,"20.6203991042525,-100.440350220666","Avenida Témpano, El Rocío, Delegación Félix Osores, Santiago de Querétaro, Municipio de Querétaro, Querétaro, 76114, México",76114,Queretaro,2201400011068,"Los Castaños, Sendero, Lomas del Carmen, La Huerta, El Rocio II, Don Manuel, Puerta del Sol II, Los Sauces, El Rocio"
Odontologia Integral QRO,20.6183853149414,-100.425682067871,Dentist's Office,Private,"20.6183853149414,-100.425682067871","Los Patos, El Sol, Obrera, Delegación Félix Osores, Santiago de Querétaro, Municipio de Querétaro, Querétaro, 76114, México",76114,Queretaro,2201400011265,"Los Castaños, Sendero, Lomas del Carmen, La Huerta, El Rocio II, Don Manuel, Puerta del Sol II, Los Sauces, El Rocio"
MENOS KILOS Carrillo,20.6102341069634,-100.434929630208,Doctor's Office,Private,"20.6102341069634,-100.434929630208","Avenida Revolución, El Tintero, Santa María Magdalena, Delegación Felipe Carrillo Puerto, Santiago de Querétaro, Municipio de Querétaro, Querétaro, 76114, México",76114,Queretaro,2201400012920,"Los Castaños, Sendero, Lomas del Carmen, La Huerta, El Rocio II, Don Manuel, Puerta del Sol II, Los Sauces, El Rocio"
Dental Blue,20.6339606128061,-100.461393334386,Dentist's Office,Private,"20.6339606128061,-100.461393334386","Avenida de La Luz, Cosmos Satélite, Delegación Félix Osores, Santiago de Querétaro, Municipio de Querétaro, Querétaro, 76115, México",76115,Queretaro,2201400011246,"El Garambullo, Parque Santiago"
Rio De Luz,20.6392151906147,-100.46597628044700,Medical Center,Private,"20.6392151906147,-100.46597628044701","Calle Choles, Eucaliptos, Delegación Félix Osores, Santiago de Querétaro, Municipio de Querétaro, Querétaro, 76116, México",76116,Queretaro,2201400012776,"Ampliación Patria Nueva, Chula Vista I, Che Guevara (Axayacatl), Loma IX, 25 de Diciembre, Geo Villas, Josefa Ortiz de Domínguez IV, Tenochtitlán II, Víctor Iturbe, Rinconada de las Fuentes, Misión de Carrillo II, Chula Vista II, Patria Nueva, Loma Real, Eucaliptos, Lomas de San Ángel, Las Camelinas, Jardines de Azucenas, Prados del Rincón 2a. Sección, La Floresta, Misión de Carrillo, Tenochtitlán, Ciudad del Sol, Los Encinos, Sierra Colorada, Benito Juárez, Cerrito Colorado, Ciudad del Sol Sección Valle de Santiago, Real de la Loma, Puerta Navarra, Ex-Hacienda Santana, Villas de Guadalupe, Teotihuacan, La Loma, Cerrito Colorado 2a Secc, Querena, Claustros de la Loma, Geo Plazas, Vistas del Valle, Rocio Sanz, Bugambilias Residencial, La Peña, Las Azucenas, Puerta del Sol, La Cordillera, Colinas del Poniente"
Centro Neurológico Querétaro,20.6288789956868,-100.425858145804,Medical Center,Private,"20.6288789956868,-100.425858145804","Avenida 5 de Febrero, Obrera, Delegación Félix Osores, Santiago de Querétaro, Municipio de Querétaro, Querétaro, 76120, México",76120,Queretaro,2201400010125,"Benito Juárez, Santiago"
Nutrióloga,20.636468924644800,-100.434741881123,Doctor's Office,Private,"20.636468924644802,-100.434741881123","ITP Ingeniería y Fabricación, 6D, Acceso 4, Josefa Ortíz de Dominguez, Delegación Félix Osores, Santiago de Querétaro, Municipio de Querétaro, Querétaro, 76120, México",76120,Queretaro,2201400010125,"Benito Juárez, Santiago"
Clínica Issste Sombrerete,20.64192,-100.4308154,Doctor's Office,Public,"20.64192,-100.4308154","Avenida 5 de Febrero, Obrera, Delegación Félix Osores, Santiago de Querétaro, Municipio de Querétaro, Querétaro, 76120, México",76120,Queretaro,2201400010125,"Benito Juárez, Santiago"
Clínica 15 IMSS,20.6236304341865,-100.41166463039000,Hospital,Public,"20.6236304341865,-100.41166463038999","IMSS #15, Calle Playa Condesa, Residencial Bellavista, Palmas II, Delegación Epigmenio González, Santiago de Querétaro, Municipio de Querétaro, Querétaro, 46121, México",76125,Queretaro,2201400011157,"San Pablo II FOVISSSTE, Desarrollo San Pablo, San Pablo I FOVISSSTE, Rivera y Tamayo, Punta San Carlos, Latinoamericana, Misión Bucareli Sur, José María Bustamante, Margaritas, Proyección 2000, Desarrollo San Ángel, San Pablo, Valle de San Pablo, La Condesa, Balcones de San Pablo, Jardines de Alborada, Sergio Villaseñor, Lomas de San Pablo, Cipreses, Los Robles, Bellavista, Terrazas de San Pablo, Desarrollo San Pablo I, Desarrollo San Pablo II, San Pablo I, San Pablo II, Nuevo Horizonte"
PODOLOGO SAN ANGEL,20.621411761306400,-100.41068263322,Medical Center,Private,"20.621411761306398,-100.41068263322","La Canasta, Avenida Playa Roqueta, Residencial Bellavista, Palmas II, Delegación Epigmenio González, Santiago de Querétaro, Municipio de Querétaro, Querétaro, 73130, México",76125,Queretaro,2201400010816,"San Pablo II FOVISSSTE, Desarrollo San Pablo, San Pablo I FOVISSSTE, Rivera y Tamayo, Punta San Carlos, Latinoamericana, Misión Bucareli Sur, José María Bustamante, Margaritas, Proyección 2000, Desarrollo San Ángel, San Pablo, Valle de San Pablo, La Condesa, Balcones de San Pablo, Jardines de Alborada, Sergio Villaseñor, Lomas de San Pablo, Cipreses, Los Robles, Bellavista, Terrazas de San Pablo, Desarrollo San Pablo I, Desarrollo San Pablo II, San Pablo I, San Pablo II, Nuevo Horizonte"
Laboratorio Chopo,20.6222502608543,-100.41864315129700,Medical Lab,Private,"20.6222502608543,-100.41864315129699","Calle Cerro del Chiquihuite, San Pablo IV, Palmas II, Delegación Epigmenio González, Santiago de Querétaro, Municipio de Querétaro, Querétaro, 46121, México",76130,Queretaro,2201400012136,"Industrial, Obrera"
Ópticas Devlyn,20.6179033146657,-100.405465608825,Doctor's Office,Private,"20.6179033146657,-100.405465608825","Boulevard Bernardo Quintana, Residencial Bellavista, Palmas II, Delegación Epigmenio González, Santiago de Querétaro, Municipio de Querétaro, Querétaro, 76130, México",76130,Queretaro,2201400011227,"Industrial, Obrera"
Consultorio 1002 Dr. Castro,20.617348,-100.40713,Doctor's Office,Private,"20.617348,-100.40713","Star Médica, Boulevard Bernardo Quintana, Delegación Centro Histórico, Santiago de Querétaro, Municipio de Querétaro, Querétaro, 76130, México",76130,Queretaro,2201400011227,"Industrial, Obrera"
Paulina Novelo Nutriologa,20.617302,-100.407098,Nutritionist,Private,"20.617302,-100.407098","Star Médica, Boulevard Bernardo Quintana, Delegación Centro Histórico, Santiago de Querétaro, Municipio de Querétaro, Querétaro, 76130, México",76130,Queretaro,2201400011227,"Industrial, Obrera"
Centro De Salud San Pablo,20.6132817039844,-100.414425667285,Hospital,Public,"20.6132817039844,-100.414425667285","Privada Real, San Pablo, Delegación Centro Histórico, Santiago de Querétaro, Municipio de Querétaro, Querétaro, 73130, México",76130,Queretaro,2201400011674,"Industrial, Obrera"
Star Médica,20.617823655456600,-100.40722708413800,Hospital,Private,"20.617823655456604,-100.40722708413799","Star Médica, Boulevard Bernardo Quintana, Delegación Centro Histórico, Santiago de Querétaro, Municipio de Querétaro, Querétaro, 76130, México",76130,Queretaro,2201400011227,"Industrial, Obrera"
Consultorio 1010-2 Dr. Kaleb Encorrada - Ginecología,20.617666488802000,-100.40727102252,Doctor's Office,Private,"20.617666488801998,-100.40727102252","Star Médica, Boulevard Bernardo Quintana, Delegación Centro Histórico, Santiago de Querétaro, Municipio de Querétaro, Querétaro, 76130, México",76130,Queretaro,2201400011227,"Industrial, Obrera"
CMJ Centro Médico Jurica,20.6541036883354,-100.434004442633,Medical Center,Private,"20.6541036883354,-100.434004442633","Privada de los Industriales, Delegación Félix Osores, Santiago de Querétaro, Municipio de Querétaro, Querétaro, 76127, México",76127,Queretaro,2201400013613,"Lomas del Salitre, Palmares, Parque Industrial Jurica, Arco de Piedra, El Salitre, Raquet Club, Cuitláhuac"
Dharma,20.662131,-100.434554,Physical Therapist,Private,"20.662131,-100.434554","Delegación Félix Osores, Querétaro, Municipio de Querétaro, Querétaro, 76127, México",76127,Queretaro,2201400013613,"Lomas del Salitre, Palmares, Parque Industrial Jurica, Arco de Piedra, El Salitre, Raquet Club, Cuitláhuac"
Odontología Infantil,20.653602728213600,-100.43332613192700,Dentist's Office,Private,"20.653602728213603,-100.43332613192699","Privada de los Industriales, Delegación Félix Osores, Santiago de Querétaro, Municipio de Querétaro, Querétaro, 76127, México",76127,Queretaro,2201400013613,"Lomas del Salitre, Palmares, Parque Industrial Jurica, Arco de Piedra, El Salitre, Raquet Club, Cuitláhuac"
Dentista Dra. Maria Jimenez Diaz,20.595987,-100.430858,Dentist's Office,Private,"20.595987,-100.430858","Miscelánea Soto, Calle San Germán, Las Teresas, Santa María Magdalena, Delegación Felipe Carrillo Puerto, Santiago de Querétaro, Municipio de Querétaro, Querétaro, 76134, México",76134,Queretaro,2201400012969,"Rancho Bellavista, Santa Mónica, San Sebastián, Ampolletas, El Mirador, El Tintero Dos (Las Margaritas), Plutarco Elías Calles, Solidaridad 90, El Arco, El Tintero, Nuevo Carrillo"
Dra. Xochilt,20.604433,-100.438866,Medical Center,Private,"20.604433,-100.438866","Calle Vía Láctea, Santa Mónica, Santa María Magdalena, Delegación Felipe Carrillo Puerto, Santiago de Querétaro, Municipio de Querétaro, Querétaro, 76134, México",76134,Queretaro,2201400011763,"Rancho Bellavista, Santa Mónica, San Sebastián, Ampolletas, El Mirador, El Tintero Dos (Las Margaritas), Plutarco Elías Calles, Solidaridad 90, El Arco, El Tintero, Nuevo Carrillo"
Centro De Salud Santa Maria Magdalena,20.600593,-100.448038,Doctor's Office,Public,"20.600593,-100.448038","Calle Epigmenio González, La Aurora, Santa María Magdalena, Delegación Felipe Carrillo Puerto, Santiago de Querétaro, Municipio de Querétaro, Querétaro, 76134, México",76134,Queretaro,2201401071462,"Rancho Bellavista, Santa Mónica, San Sebastián, Ampolletas, El Mirador, El Tintero Dos (Las Margaritas), Plutarco Elías Calles, Solidaridad 90, El Arco, El Tintero, Nuevo Carrillo"
Interlab,20.6033404,-100.4428076,Medical Lab,Private,"20.6033404,-100.4428076","Calle Urbanización, Santa Mónica, Santa María Magdalena, Delegación Felipe Carrillo Puerto, Santiago de Querétaro, Municipio de Querétaro, Querétaro, 76134, México",76134,Queretaro,2201400011763,"Rancho Bellavista, Santa Mónica, San Sebastián, Ampolletas, El Mirador, El Tintero Dos (Las Margaritas), Plutarco Elías Calles, Solidaridad 90, El Arco, El Tintero, Nuevo Carrillo"
Odontologia Integral Diseñando Sonrisas,20.603958129882800,-100.445518493652,Dentist's Office,Private,"20.603958129882802,-100.445518493652","Calle El Tintero, Rancho Bellavista, Santa María Magdalena, Delegación Felipe Carrillo Puerto, Santiago de Querétaro, Municipio de Querétaro, Querétaro, 76134, México",76134,Queretaro,2201400014236,"Rancho Bellavista, Santa Mónica, San Sebastián, Ampolletas, El Mirador, El Tintero Dos (Las Margaritas), Plutarco Elías Calles, Solidaridad 90, El Arco, El Tintero, Nuevo Carrillo"
Consultorio Dental Dra. Guadalupe Sierra,20.605128144687,-100.44218315812800,Dentist's Office,Private,"20.605128144687,-100.44218315812799","Calle Santa Inés, Santa Mónica, Santa María Magdalena, Delegación Felipe Carrillo Puerto, Santiago de Querétaro, Municipio de Querétaro, Querétaro, 76134, México",76134,Queretaro, 220140001173A,"Rancho Bellavista, Santa Mónica, San Sebastián, Ampolletas, El Mirador, El Tintero Dos (Las Margaritas), Plutarco Elías Calles, Solidaridad 90, El Arco, El Tintero, Nuevo Carrillo"
Unidad de Medicina Familiar #9,20.6044656294522,-100.428497096286,Hospital,Public,"20.6044656294522,-100.428497096286","Calle Guadalupe Victoria, Carrillo, Santa María Magdalena, Delegación Felipe Carrillo Puerto, Santiago de Querétaro, Municipio de Querétaro, Querétaro, 76134, México",76134,Queretaro,220140001294A,"Rancho Bellavista, Santa Mónica, San Sebastián, Ampolletas, El Mirador, El Tintero Dos (Las Margaritas), Plutarco Elías Calles, Solidaridad 90, El Arco, El Tintero, Nuevo Carrillo"
Hospital Infantil Teleton de Oncología,20.622502384418900,-100.384779911256,Hospital,Public,"20.622502384418897,-100.384779911256","Hospital Oncológico Teletón, Anillo Vial Junípero Serra, Hércules, Delegación Cayetano Rubio, Santiago de Querétaro, Municipio de Querétaro, Querétaro, 76140, México",76140,Queretaro,220140001344A,"Privada Arboledas, Cedros Tilipanes, Cedros Alcatraces, Las Plazas, Parque Queretaro 2000, Arboledas del Parque, San Pedrito Peñuelas, Viveros Residencial, Arboledas, Balcones Coloniales, Villas del Parque, Vista 2000, Colinas del Parque"
HITO,20.6227278676681,-100.384715689673,Hospital,Private,"20.6227278676681,-100.384715689673","Hospital Oncológico Teletón, Anillo Vial Junípero Serra, Hércules, Delegación Cayetano Rubio, Santiago de Querétaro, Municipio de Querétaro, Querétaro, 76140, México",76140,Queretaro, 220140001344A,"Privada Arboledas, Cedros Tilipanes, Cedros Alcatraces, Las Plazas, Parque Queretaro 2000, Arboledas del Parque, San Pedrito Peñuelas, Viveros Residencial, Arboledas, Balcones Coloniales, Villas del Parque, Vista 2000, Colinas del Parque"
Clinica Omnilaser,20.6167258746824,-100.390995562158,Doctor's Office,Private,"20.6167258746824,-100.390995562158","Plaza Centrum, 113, Boulevard Bernardo Quintana, Villas del Parque, Delegación Epigmenio González, Santiago de Querétaro, Municipio de Querétaro, Querétaro, 76140, México",76140,Queretaro,2201400010816,"Privada Arboledas, Cedros Tilipanes, Cedros Alcatraces, Las Plazas, Parque Queretaro 2000, Arboledas del Parque, San Pedrito Peñuelas, Viveros Residencial, Arboledas, Balcones Coloniales, Villas del Parque, Vista 2000, Colinas del Parque"
Orthodontic Centers Of America Boulevares,20.6142782972205,-100.38866157139,Dentist's Office,Private,"20.6142782972205,-100.38866157139","Plaza Boulevares, Lateral Bernardo Quintana, Plaza Boulevares, Delegación Centro Histórico, Santiago de Querétaro, Municipio de Querétaro, Querétaro, 76140, México",76140,Queretaro,2201400012244,"Privada Arboledas, Cedros Tilipanes, Cedros Alcatraces, Las Plazas, Parque Queretaro 2000, Arboledas del Parque, San Pedrito Peñuelas, Viveros Residencial, Arboledas, Balcones Coloniales, Villas del Parque, Vista 2000, Colinas del Parque"
BIMODI Biología Molecular Diagnóstica,20.619336244761700,-100.389404985527,Medical Lab,Private,"20.619336244761698,-100.389404985527","1082, Avenida Corregidora, Villas del Parque, Delegación Epigmenio González, Santiago de Querétaro, Municipio de Querétaro, Querétaro, 76140, México",76140,Queretaro,2201400010229,"Privada Arboledas, Cedros Tilipanes, Cedros Alcatraces, Las Plazas, Parque Queretaro 2000, Arboledas del Parque, San Pedrito Peñuelas, Viveros Residencial, Arboledas, Balcones Coloniales, Villas del Parque, Vista 2000, Colinas del Parque"
Smile On!,20.618822061561600,-100.390239357948,Dentist's Office,Private,"20.618822061561602,-100.390239357948","943, Avenida Corregidora, Villas del Parque, Delegación Epigmenio González, Santiago de Querétaro, Municipio de Querétaro, Querétaro, 76140, México",76140,Queretaro,2201400010816,"Privada Arboledas, Cedros Tilipanes, Cedros Alcatraces, Las Plazas, Parque Queretaro 2000, Arboledas del Parque, San Pedrito Peñuelas, Viveros Residencial, Arboledas, Balcones Coloniales, Villas del Parque, Vista 2000, Colinas del Parque"
Instituto SADE,20.616742864525900,-100.391984684785,Chiropractor,Private,"20.616742864525897,-100.391984684785","Plaza Centrum, 113, Boulevard Bernardo Quintana, Villas del Parque, Delegación Epigmenio González, Santiago de Querétaro, Municipio de Querétaro, Querétaro, 76140, México",76140,Queretaro,2201400010816,"Privada Arboledas, Cedros Tilipanes, Cedros Alcatraces, Las Plazas, Parque Queretaro 2000, Arboledas del Parque, San Pedrito Peñuelas, Viveros Residencial, Arboledas, Balcones Coloniales, Villas del Parque, Vista 2000, Colinas del Parque"
