Neighbourhood,Neighbourhood Latitude,Neighbourhood Longitude,Venue,Venue Latitude,Venue Longitude,Venue Category
Centro,20.5954708,-100.3970593,Laboratorio Corregidora,20.5956210287035,-100.3926768785027,Medical Center
Centro,20.5954708,-100.3970593,Farmacias del Ahorro,20.59579301007659,-100.39274522876013,Pharmacy
Centro,20.5954708,-100.3970593,Farmacias del Ahorro,20.592040886080614,-100.39182925487606,Pharmacy
Centro,20.5954708,-100.3970593,salud digna,20.58674255376263,-100.39547810202346,Medical Center
Centro,20.5954708,-100.3970593,Farmacia Dérmica,20.597282279819595,-100.39413291943842,Pharmacy
Centro,20.5954708,-100.3970593,Farmacia Guadalajara,20.597597685391094,-100.39431095123291,Pharmacy
Centro,20.5954708,-100.3970593,Sanatorio Margarita,20.59235738795313,-100.39521346802559,Hospital
Centro,20.5954708,-100.3970593,Secretaría De Salud,20.594393575524382,-100.39026151674763,Medical Center
Centro,20.5954708,-100.3970593,Sanatorio Santiago de Querétaro,20.592118628983823,-100.39993738370174,Hospital
Centro,20.5954708,-100.3970593,Fisioterapia,20.591962,-100.400661,Medical Center
Centro,20.5954708,-100.3970593,Farmacias Guadalajara,20.592149,-100.393237,Pharmacy
Centro,20.5954708,-100.3970593,Hospital Santa Rosa de Viterbo,20.588505998594307,-100.3972142996623,Hospital
Centro,20.5954708,-100.3970593,Hospital del Sagrado Corazon,20.599133709271563,-100.39337292309114,Hospital
Centro,20.5954708,-100.3970593,Farmacia del Ahorro,20.595616213966306,-100.40247065280423,Pharmacy
Centro,20.5954708,-100.3970593,Sanatorio Mariano,20.590467339588166,-100.39383043043023,Medical Center
Centro,20.5954708,-100.3970593,Policlínica Médica De Querétaro,20.5912154420652,-100.39223513437494,Medical Center
Centro,20.5954708,-100.3970593,Farmacias Similares,20.588842391967773,-100.39704132080078,Pharmacy
Centro,20.5954708,-100.3970593,Centro de Salud Dr. Pedro Escobedo,20.588855910512187,-100.39889761182215,Medical Center
Centro,20.5954708,-100.3970593,Ópticas Devlyn,20.596444,-100.393887,Doctor's Office
Centro,20.5954708,-100.3970593,Farmacia Homeopática Querétaro,20.591147440190177,-100.40344387292862,Pharmacy
Centro,20.5954708,-100.3970593,Lotus: Farmacia Homeopática,20.588880122982893,-100.39256751537323,Pharmacy
Centro,20.5954708,-100.3970593,Hospital Luis Martin,20.58768903499588,-100.39467710021589,Hospital
Centro,20.5954708,-100.3970593,Sanatorio Alcocer Pozo,20.59061785026444,-100.38987955347994,Hospital
Centro,20.5954708,-100.3970593,Medicina Transfusional de Querétaro (Banco de Sangre),20.587538716078875,-100.40032991634808,Hospital
Centro,20.5954708,-100.3970593,Clinica Medica Familiar ISSSTE Queretaro,20.592521230151466,-100.40564352767903,Hospital
Centro,20.5954708,-100.3970593,FisioINTEGRATE (Fisioterapia Y Rehabilitacion),20.591856002807617,-100.40054321289062,Doctor's Office
Centro,20.5954708,-100.3970593,ISSSTE Hospital General,20.592696628687055,-100.40619850158691,Hospital
Centro,20.5954708,-100.3970593,SESEQ Adquisiciones,20.596593313663362,-100.39018416326381,Doctor's Office
Centro,20.5954708,-100.3970593,Medicina transfusional de Querétaro,20.58756555126027,-100.40038601889187,Doctor's Office
Centro,20.5954708,-100.3970593,Clinica Naturista Dra. Eliud,20.5882361,-100.4020996,Doctor's Office
Centro,20.5954708,-100.3970593,ServiOptica Queretaro,20.597939,-100.394665,Optical Shop
Centro,20.5954708,-100.3970593,Medica 4,20.595296810021196,-100.39244626737499,Dentist's Office
Centro,20.5954708,-100.3970593,Clínica Dental Terán,20.591094910569538,-100.39787924205521,Dentist's Office
Centro,20.5954708,-100.3970593,Odontologia Restauradora ( Dra. Eva Campos),20.588786,-100.397169,Dentist's Office
Centro,20.5954708,-100.3970593,Dentista,20.592176886488573,-100.38910612463951,Dentist's Office
Centro,20.5954708,-100.3970593,Sorriso Clínica Dental,20.588118674394664,-100.40085704110338,Dentist's Office
Centro,20.5954708,-100.3970593,DENTAL CENTER odotonlogia integral,20.587440035113364,-100.39366121191877,Dentist's Office
Centro,20.5954708,-100.3970593,Dental Center RAV,20.587466411831993,-100.39359192922771,Dentist's Office
"Rincón de San Andrés, Mariano Escobedo, Vicente Guerrero, Rinconada Morelos",20.5950059198615,-100.398769877602,Laboratorio Corregidora,20.5956210287035,-100.3926768785027,Medical Center
"Rincón de San Andrés, Mariano Escobedo, Vicente Guerrero, Rinconada Morelos",20.5950059198615,-100.398769877602,salud digna,20.58674255376263,-100.39547810202346,Medical Center
"Rincón de San Andrés, Mariano Escobedo, Vicente Guerrero, Rinconada Morelos",20.5950059198615,-100.398769877602,Sanatorio Santiago de Querétaro,20.592118628983823,-100.39993738370174,Hospital
"Rincón de San Andrés, Mariano Escobedo, Vicente Guerrero, Rinconada Morelos",20.5950059198615,-100.398769877602,Farmacias del Ahorro,20.59579301007659,-100.39274522876013,Pharmacy
"Rincón de San Andrés, Mariano Escobedo, Vicente Guerrero, Rinconada Morelos",20.5950059198615,-100.398769877602,Farmacia del Ahorro,20.595616213966306,-100.40247065280423,Pharmacy
"Rincón de San Andrés, Mariano Escobedo, Vicente Guerrero, Rinconada Morelos",20.5950059198615,-100.398769877602,Fisioterapia,20.591962,-100.400661,Medical Center
"Rincón de San Andrés, Mariano Escobedo, Vicente Guerrero, Rinconada Morelos",20.5950059198615,-100.398769877602,Farmacias del Ahorro,20.592040886080614,-100.39182925487606,Pharmacy
"Rincón de San Andrés, Mariano Escobedo, Vicente Guerrero, Rinconada Morelos",20.5950059198615,-100.398769877602,Sanatorio Margarita,20.59235738795313,-100.39521346802559,Hospital
"Rincón de San Andrés, Mariano Escobedo, Vicente Guerrero, Rinconada Morelos",20.5950059198615,-100.398769877602,Hospital Santa Rosa de Viterbo,20.588505998594307,-100.3972142996623,Hospital
"Rincón de San Andrés, Mariano Escobedo, Vicente Guerrero, Rinconada Morelos",20.5950059198615,-100.398769877602,Farmacia Dérmica,20.597282279819595,-100.39413291943842,Pharmacy
"Rincón de San Andrés, Mariano Escobedo, Vicente Guerrero, Rinconada Morelos",20.5950059198615,-100.398769877602,Farmacia Guadalajara,20.597597685391094,-100.39431095123291,Pharmacy
"Rincón de San Andrés, Mariano Escobedo, Vicente Guerrero, Rinconada Morelos",20.5950059198615,-100.398769877602,Farmacia Benavides,20.58958,-100.404466,Pharmacy
"Rincón de San Andrés, Mariano Escobedo, Vicente Guerrero, Rinconada Morelos",20.5950059198615,-100.398769877602,Secretaría De Salud,20.594393575524382,-100.39026151674763,Medical Center
"Rincón de San Andrés, Mariano Escobedo, Vicente Guerrero, Rinconada Morelos",20.5950059198615,-100.398769877602,Farmacia Homeopática Querétaro,20.591147440190177,-100.40344387292862,Pharmacy
"Rincón de San Andrés, Mariano Escobedo, Vicente Guerrero, Rinconada Morelos",20.5950059198615,-100.398769877602,Farmacias Guadalajara,20.592149,-100.393237,Pharmacy
"Rincón de San Andrés, Mariano Escobedo, Vicente Guerrero, Rinconada Morelos",20.5950059198615,-100.398769877602,Centro de Salud Dr. Pedro Escobedo,20.588855910512187,-100.39889761182215,Medical Center
"Rincón de San Andrés, Mariano Escobedo, Vicente Guerrero, Rinconada Morelos",20.5950059198615,-100.398769877602,Farmacias Similares,20.588842391967773,-100.39704132080078,Pharmacy
"Rincón de San Andrés, Mariano Escobedo, Vicente Guerrero, Rinconada Morelos",20.5950059198615,-100.398769877602,Sanatorio Mariano,20.590467339588166,-100.39383043043023,Medical Center
"Rincón de San Andrés, Mariano Escobedo, Vicente Guerrero, Rinconada Morelos",20.5950059198615,-100.398769877602,Hospital del Sagrado Corazon,20.599133709271563,-100.39337292309114,Hospital
"Rincón de San Andrés, Mariano Escobedo, Vicente Guerrero, Rinconada Morelos",20.5950059198615,-100.398769877602,Clinica Medica Familiar ISSSTE Queretaro,20.592521230151466,-100.40564352767903,Hospital
"Rincón de San Andrés, Mariano Escobedo, Vicente Guerrero, Rinconada Morelos",20.5950059198615,-100.398769877602,Policlínica Médica De Querétaro,20.5912154420652,-100.39223513437494,Medical Center
"Rincón de San Andrés, Mariano Escobedo, Vicente Guerrero, Rinconada Morelos",20.5950059198615,-100.398769877602,ISSSTE Hospital General,20.592696628687055,-100.40619850158691,Hospital
"Rincón de San Andrés, Mariano Escobedo, Vicente Guerrero, Rinconada Morelos",20.5950059198615,-100.398769877602,Farmacias del Ahorro,20.586441769394774,-100.39649219717529,Pharmacy
"Rincón de San Andrés, Mariano Escobedo, Vicente Guerrero, Rinconada Morelos",20.5950059198615,-100.398769877602,Medicina Transfusional de Querétaro (Banco de Sangre),20.587538716078875,-100.40032991634808,Hospital
"Rincón de San Andrés, Mariano Escobedo, Vicente Guerrero, Rinconada Morelos",20.5950059198615,-100.398769877602,FisioINTEGRATE (Fisioterapia Y Rehabilitacion),20.591856002807617,-100.40054321289062,Doctor's Office
"Rincón de San Andrés, Mariano Escobedo, Vicente Guerrero, Rinconada Morelos",20.5950059198615,-100.398769877602,ISSSTE,20.592925500913832,-100.40662857878021,Hospital
"Rincón de San Andrés, Mariano Escobedo, Vicente Guerrero, Rinconada Morelos",20.5950059198615,-100.398769877602,ISSSTE Hospital General Queretaro,20.592926501320132,-100.40707237326686,Hospital
"Rincón de San Andrés, Mariano Escobedo, Vicente Guerrero, Rinconada Morelos",20.5950059198615,-100.398769877602,Isste,20.593010515374285,-100.4071277827275,Hospital
"Rincón de San Andrés, Mariano Escobedo, Vicente Guerrero, Rinconada Morelos",20.5950059198615,-100.398769877602,Hospital Luis Martin,20.58768903499588,-100.39467710021589,Hospital
"Rincón de San Andrés, Mariano Escobedo, Vicente Guerrero, Rinconada Morelos",20.5950059198615,-100.398769877602,Lotus: Farmacia Homeopática,20.588880122982893,-100.39256751537323,Pharmacy
"Rincón de San Andrés, Mariano Escobedo, Vicente Guerrero, Rinconada Morelos",20.5950059198615,-100.398769877602,Ópticas Devlyn,20.596444,-100.393887,Doctor's Office
"Rincón de San Andrés, Mariano Escobedo, Vicente Guerrero, Rinconada Morelos",20.5950059198615,-100.398769877602,Clinica Naturista Dra. Eliud,20.5882361,-100.4020996,Doctor's Office
"Rincón de San Andrés, Mariano Escobedo, Vicente Guerrero, Rinconada Morelos",20.5950059198615,-100.398769877602,Medicina transfusional de Querétaro,20.58756555126027,-100.40038601889187,Doctor's Office
"Rincón de San Andrés, Mariano Escobedo, Vicente Guerrero, Rinconada Morelos",20.5950059198615,-100.398769877602,Colegio Médico de Querétaro,20.59175944449099,-100.40660403734421,Doctor's Office
"Rincón de San Andrés, Mariano Escobedo, Vicente Guerrero, Rinconada Morelos",20.5950059198615,-100.398769877602,SESEQ Adquisiciones,20.596593313663362,-100.39018416326381,Doctor's Office
"Rincón de San Andrés, Mariano Escobedo, Vicente Guerrero, Rinconada Morelos",20.5950059198615,-100.398769877602,Grupo Médico Zaragoza,20.586133368719405,-100.39769952936594,Doctor's Office
"Rincón de San Andrés, Mariano Escobedo, Vicente Guerrero, Rinconada Morelos",20.5950059198615,-100.398769877602,Medical Center,20.586082362822125,-100.39825772251116,Doctor's Office
"Rincón de San Andrés, Mariano Escobedo, Vicente Guerrero, Rinconada Morelos",20.5950059198615,-100.398769877602,Clinica De Atencion Al Pie,20.586207206330133,-100.40047927013518,Doctor's Office
"Rincón de San Andrés, Mariano Escobedo, Vicente Guerrero, Rinconada Morelos",20.5950059198615,-100.398769877602,ServiOptica Queretaro,20.597939,-100.394665,Optical Shop
"Rincón de San Andrés, Mariano Escobedo, Vicente Guerrero, Rinconada Morelos",20.5950059198615,-100.398769877602,Clínica Dental Terán,20.591094910569538,-100.39787924205521,Dentist's Office
"Rincón de San Andrés, Mariano Escobedo, Vicente Guerrero, Rinconada Morelos",20.5950059198615,-100.398769877602,Medica 4,20.595296810021196,-100.39244626737499,Dentist's Office
"Rincón de San Andrés, Mariano Escobedo, Vicente Guerrero, Rinconada Morelos",20.5950059198615,-100.398769877602,Odontologia Restauradora ( Dra. Eva Campos),20.588786,-100.397169,Dentist's Office
"Rincón de San Andrés, Mariano Escobedo, Vicente Guerrero, Rinconada Morelos",20.5950059198615,-100.398769877602,Sorriso Clínica Dental,20.588118674394664,-100.40085704110338,Dentist's Office
"Rincón de San Andrés, Mariano Escobedo, Vicente Guerrero, Rinconada Morelos",20.5950059198615,-100.398769877602,DENTAL CENTER odotonlogia integral,20.587440035113364,-100.39366121191877,Dentist's Office
"Rincón de San Andrés, Mariano Escobedo, Vicente Guerrero, Rinconada Morelos",20.5950059198615,-100.398769877602,Dental Center RAV,20.587466411831993,-100.39359192922771,Dentist's Office
"Rincón de San Andrés, Mariano Escobedo, Vicente Guerrero, Rinconada Morelos",20.5950059198615,-100.398769877602,Centro Médico Veterinario Dr. Benjamín Solorio,20.58686649347516,-100.40074805366807,Veterinarian
"Las Campanas, Niños Héroes",20.585667481832527,-100.40709102903799,Hospital H+ Querétaro,20.584419260564264,-100.39994724459063,Hospital
"Las Campanas, Niños Héroes",20.585667481832527,-100.40709102903799,Farmacias Especializadas,20.58297950576052,-100.40633844443897,Pharmacy
"Las Campanas, Niños Héroes",20.585667481832527,-100.40709102903799,Farmacias del Ahorro,20.582515333751513,-100.40757667887759,Pharmacy
"Las Campanas, Niños Héroes",20.585667481832527,-100.40709102903799,Farmacia Benavides,20.58958,-100.404466,Pharmacy
"Las Campanas, Niños Héroes",20.585667481832527,-100.40709102903799,INNÉOV,20.58357,-100.407848,Pharmacy
"Las Campanas, Niños Héroes",20.585667481832527,-100.40709102903799,Hospital General Regional #1 IMSS,20.582246374273826,-100.4057673212942,Hospital
"Las Campanas, Niños Héroes",20.585667481832527,-100.40709102903799,Instituto Mexicano del Seguro Social,20.583011285445927,-100.40527361050422,Hospital
"Las Campanas, Niños Héroes",20.585667481832527,-100.40709102903799,St. Joseph,20.58334371165746,-100.40939233805308,Medical Center
"Las Campanas, Niños Héroes",20.585667481832527,-100.40709102903799,Sala De La Salud (Espera) Del Hgr1 Del Imss,20.58217712122349,-100.40525399929473,Hospital
"Las Campanas, Niños Héroes",20.585667481832527,-100.40709102903799,Hospital General Regional 1,20.581870990276457,-100.40553692259068,Hospital
"Las Campanas, Niños Héroes",20.585667481832527,-100.40709102903799,Direccion Del Imss HGZ1,20.58146222431911,-100.40584653472523,Hospital
"Las Campanas, Niños Héroes",20.585667481832527,-100.40709102903799,IMSS,20.58151733317908,-100.40510355518852,Hospital
"Las Campanas, Niños Héroes",20.585667481832527,-100.40709102903799,Jefatura De Medicina Interna HGR 1 IMSS,20.580989047151572,-100.40597029206617,Hospital
"Las Campanas, Niños Héroes",20.585667481832527,-100.40709102903799,Hospital General Querétaro,20.579968025440067,-100.40546560882501,Hospital
"Las Campanas, Niños Héroes",20.585667481832527,-100.40709102903799,Unidad Médica La Capilla,20.58071613309125,-100.40909896325776,Hospital
"Las Campanas, Niños Héroes",20.585667481832527,-100.40709102903799,Farmacia Guadalajara,20.58352077095317,-100.41574998892388,Pharmacy
"Las Campanas, Niños Héroes",20.585667481832527,-100.40709102903799,Centro Estatal de la Transfusión Sanguínea,20.58007393475267,-100.40564663618595,Hospital
"Las Campanas, Niños Héroes",20.585667481832527,-100.40709102903799,Urgencias HGQ,20.579870063684183,-100.40567406460552,Hospital
"Las Campanas, Niños Héroes",20.585667481832527,-100.40709102903799,clina 13 UMF (Unidad de Medicina Familiar #13 IMSS),20.58367281092006,-100.40783545017942,Doctor's Office
"Las Campanas, Niños Héroes",20.585667481832527,-100.40709102903799,Hospital Tec 100 Torre 3,20.584102,-100.4005,Hospital
"Las Campanas, Niños Héroes",20.585667481832527,-100.40709102903799,Farmacias del Ahorro,20.580523001516084,-100.40964837974882,Pharmacy
"Las Campanas, Niños Héroes",20.585667481832527,-100.40709102903799,Medicina Física Y Rehabilitación Dr Tonatiuh,20.579151288153607,-100.40808572566732,Medical Center
"Las Campanas, Niños Héroes",20.585667481832527,-100.40709102903799,Medicina Transfusional de Querétaro (Banco de Sangre),20.587538716078875,-100.40032991634808,Hospital
"Las Campanas, Niños Héroes",20.585667481832527,-100.40709102903799,Medica Tec100,20.584220599564258,-100.39993768292331,Hospital
"Las Campanas, Niños Héroes",20.585667481832527,-100.40709102903799,ISSSTE Hospital General Queretaro,20.592926501320132,-100.40707237326686,Hospital
"Las Campanas, Niños Héroes",20.585667481832527,-100.40709102903799,Clinica Medica Familiar ISSSTE Queretaro,20.592521230151466,-100.40564352767903,Hospital
"Las Campanas, Niños Héroes",20.585667481832527,-100.40709102903799,ISSSTE Hospital General,20.592696628687055,-100.40619850158691,Hospital
"Las Campanas, Niños Héroes",20.585667481832527,-100.40709102903799,Capacits,20.578663,-100.405487,Hospital
"Las Campanas, Niños Héroes",20.585667481832527,-100.40709102903799,Isste,20.593010515374285,-100.4071277827275,Hospital
"Las Campanas, Niños Héroes",20.585667481832527,-100.40709102903799,Traumatología Y Ortopedia Del HGR1 Del Imss,20.581873,-100.406207,Doctor's Office
"Las Campanas, Niños Héroes",20.585667481832527,-100.40709102903799,Dr. Felipe Villa Bernardino,20.58767535785461,-100.41087873639526,Doctor's Office
"Las Campanas, Niños Héroes",20.585667481832527,-100.40709102903799,Centro de Salud Dr. Pedro Escobedo,20.588855910512187,-100.39889761182215,Medical Center
"Las Campanas, Niños Héroes",20.585667481832527,-100.40709102903799,Clinica 13 Imss,20.58079148958035,-100.40576243690766,Doctor's Office
"Las Campanas, Niños Héroes",20.585667481832527,-100.40709102903799,Clinica Las Campanas,20.588920048596567,-100.41127764566554,Doctor's Office
"Las Campanas, Niños Héroes",20.585667481832527,-100.40709102903799,Psiquiatría Del Hgr1 Imss Qro,20.580479,-100.40512,Doctor's Office
"Las Campanas, Niños Héroes",20.585667481832527,-100.40709102903799,RR Capilar,20.585184047486464,-100.41354775428772,Doctor's Office
"Las Campanas, Niños Héroes",20.585667481832527,-100.40709102903799,Colegio Médico de Querétaro,20.59175944449099,-100.40660403734421,Doctor's Office
"Las Campanas, Niños Héroes",20.585667481832527,-100.40709102903799,Nutrición,20.584412,-100.413536,Doctor's Office
"Las Campanas, Niños Héroes",20.585667481832527,-100.40709102903799,Clinica Dermatologica De Queretaro,20.579596,-100.408386,Doctor's Office
"Las Campanas, Niños Héroes",20.585667481832527,-100.40709102903799,Tec100 Torre 2,20.584145347462638,-100.40038046658013,Doctor's Office
"Las Campanas, Niños Héroes",20.585667481832527,-100.40709102903799,Medicina transfusional de Querétaro,20.58756555126027,-100.40038601889187,Doctor's Office
"Las Campanas, Niños Héroes",20.585667481832527,-100.40709102903799,Endocenter Clinica Dental,20.588975536789476,-100.4113107919693,Dentist's Office
"Las Campanas, Niños Héroes",20.585667481832527,-100.40709102903799,Instituto de Corazon de Queretaro,20.58448050878063,-100.40012127829642,Doctor's Office
"Las Campanas, Niños Héroes",20.585667481832527,-100.40709102903799,Medical Center,20.586082362822125,-100.39825772251116,Doctor's Office
"Las Campanas, Niños Héroes",20.585667481832527,-100.40709102903799,Grupo Médico Zaragoza,20.586133368719405,-100.39769952936594,Doctor's Office
"Las Campanas, Niños Héroes",20.585667481832527,-100.40709102903799,Cederborg Medicina Estetica,20.58212816786799,-100.41573918263454,Doctor's Office
"Las Campanas, Niños Héroes",20.585667481832527,-100.40709102903799,Urgencias IMSS HGR#1,20.582969383811566,-100.40530103881085,Emergency Room
"Las Campanas, Niños Héroes",20.585667481832527,-100.40709102903799,Urgencias Hospital Médica Tec 100,20.584156029578157,-100.40047378476528,Emergency Room
"Las Campanas, Niños Héroes",20.585667481832527,-100.40709102903799,Laboratorio del HGR1 del IMSS,20.581456609363098,-100.40607452047716,Medical Lab
"Las Campanas, Niños Héroes",20.585667481832527,-100.40709102903799,Laboratorio LABSA,20.580898881732622,-100.40900942232852,Medical Lab
Centro Universitario (U.A.Q.),20.592282053242396,-100.409679021783,ISSSTE Hospital General Queretaro,20.592926501320132,-100.40707237326686,Hospital
Centro Universitario (U.A.Q.),20.592282053242396,-100.409679021783,Isste,20.593010515374285,-100.4071277827275,Hospital
Centro Universitario (U.A.Q.),20.592282053242396,-100.409679021783,Farmacia Benavides,20.58958,-100.404466,Pharmacy
Centro Universitario (U.A.Q.),20.592282053242396,-100.409679021783,ISSSTE,20.592925500913832,-100.40662857878021,Hospital
Centro Universitario (U.A.Q.),20.592282053242396,-100.409679021783,ISSSTE Hospital General,20.592696628687055,-100.40619850158691,Hospital
Centro Universitario (U.A.Q.),20.592282053242396,-100.409679021783,Clinica Medica Familiar ISSSTE Queretaro,20.592521230151466,-100.40564352767903,Hospital
Centro Universitario (U.A.Q.),20.592282053242396,-100.409679021783,Farmacia Homeopática Querétaro,20.591147440190177,-100.40344387292862,Pharmacy
Centro Universitario (U.A.Q.),20.592282053242396,-100.409679021783,Colegio Médico de Querétaro,20.59175944449099,-100.40660403734421,Doctor's Office
Centro Universitario (U.A.Q.),20.592282053242396,-100.409679021783,Farmacia del Ahorro,20.595616213966306,-100.40247065280423,Pharmacy
Centro Universitario (U.A.Q.),20.592282053242396,-100.409679021783,Clinica Las Campanas,20.588920048596567,-100.41127764566554,Doctor's Office
Centro Universitario (U.A.Q.),20.592282053242396,-100.409679021783,Fisioterapia,20.591962,-100.400661,Medical Center
Centro Universitario (U.A.Q.),20.592282053242396,-100.409679021783,Dr. Felipe Villa Bernardino,20.58767535785461,-100.41087873639526,Doctor's Office
Centro Universitario (U.A.Q.),20.592282053242396,-100.409679021783,INNÉOV,20.58357,-100.407848,Pharmacy
Centro Universitario (U.A.Q.),20.592282053242396,-100.409679021783,St. Joseph,20.58334371165746,-100.40939233805308,Medical Center
Centro Universitario (U.A.Q.),20.592282053242396,-100.409679021783,Endocenter Clinica Dental,20.588975536789476,-100.4113107919693,Dentist's Office
Centro Universitario (U.A.Q.),20.592282053242396,-100.409679021783,Clinica UVM,20.585985879162052,-100.41284413826197,Doctor's Office
Centro Universitario (U.A.Q.),20.592282053242396,-100.409679021783,RR Capilar,20.585184047486464,-100.41354775428772,Doctor's Office
Centro Universitario (U.A.Q.),20.592282053242396,-100.409679021783,Clinica Naturista Dra. Eliud,20.5882361,-100.4020996,Doctor's Office
Centro Universitario (U.A.Q.),20.592282053242396,-100.409679021783,FisioINTEGRATE (Fisioterapia Y Rehabilitacion),20.591856002807617,-100.40054321289062,Doctor's Office
Centro Universitario (U.A.Q.),20.592282053242396,-100.409679021783,Nutrición,20.584412,-100.413536,Doctor's Office
Centro Universitario (U.A.Q.),20.592282053242396,-100.409679021783,clina 13 UMF (Unidad de Medicina Familiar #13 IMSS),20.58367281092006,-100.40783545017942,Doctor's Office
Centro Universitario (U.A.Q.),20.592282053242396,-100.409679021783,Centro De Salud Animal,20.587907347733708,-100.405171987431,Veterinarian
"San Javier, Pathé, La Cruz, Jardines de Queretaro, Diligencias, Calesa, Bosques del Acueducto, El Cortijo",20.596568280859998,-100.379079150576,Clinica Orquideas,20.594126260538758,-100.37908105811566,Medical Center
"San Javier, Pathé, La Cruz, Jardines de Queretaro, Diligencias, Calesa, Bosques del Acueducto, El Cortijo",20.596568280859998,-100.379079150576,Farmacias del Ahorro,20.595328352805158,-100.38073219423589,Pharmacy
"San Javier, Pathé, La Cruz, Jardines de Queretaro, Diligencias, Calesa, Bosques del Acueducto, El Cortijo",20.596568280859998,-100.379079150576,Hospital De La Santa Cruz,20.595044791588496,-100.37979379429292,Hospital
"San Javier, Pathé, La Cruz, Jardines de Queretaro, Diligencias, Calesa, Bosques del Acueducto, El Cortijo",20.596568280859998,-100.379079150576,Clínica médica del bosque,20.596009469787553,-100.37694832725983,Hospital
"San Javier, Pathé, La Cruz, Jardines de Queretaro, Diligencias, Calesa, Bosques del Acueducto, El Cortijo",20.596568280859998,-100.379079150576,Farmacia Guadalajara Circunvalación,20.597983,-100.381022,Pharmacy
"San Javier, Pathé, La Cruz, Jardines de Queretaro, Diligencias, Calesa, Bosques del Acueducto, El Cortijo",20.596568280859998,-100.379079150576,Farmacia Guadalajara,20.595148344997554,-100.3714544733684,Pharmacy
"San Javier, Pathé, La Cruz, Jardines de Queretaro, Diligencias, Calesa, Bosques del Acueducto, El Cortijo",20.596568280859998,-100.379079150576,Clinica Medica Equilibrium Dentista Nutrición Psicología Medicina Estética Spa,20.598439,-100.37637,Medical Center
"San Javier, Pathé, La Cruz, Jardines de Queretaro, Diligencias, Calesa, Bosques del Acueducto, El Cortijo",20.596568280859998,-100.379079150576,Farmacias Guadalajara,20.599493055186926,-100.3878803224737,Pharmacy
"San Javier, Pathé, La Cruz, Jardines de Queretaro, Diligencias, Calesa, Bosques del Acueducto, El Cortijo",20.596568280859998,-100.379079150576,Centro Dermatológico San Francisco,20.599075657030966,-100.37082977945292,Medical Center
"San Javier, Pathé, La Cruz, Jardines de Queretaro, Diligencias, Calesa, Bosques del Acueducto, El Cortijo",20.596568280859998,-100.379079150576,nutrire,20.59460484572172,-100.38610339164734,Medical Center
"San Javier, Pathé, La Cruz, Jardines de Queretaro, Diligencias, Calesa, Bosques del Acueducto, El Cortijo",20.596568280859998,-100.379079150576,Farmacias del Ahorro,20.595329956886662,-100.37154062315864,Pharmacy
"San Javier, Pathé, La Cruz, Jardines de Queretaro, Diligencias, Calesa, Bosques del Acueducto, El Cortijo",20.596568280859998,-100.379079150576,Farmacias Guadalajara,20.59521784707949,-100.37144438178069,Pharmacy
"San Javier, Pathé, La Cruz, Jardines de Queretaro, Diligencias, Calesa, Bosques del Acueducto, El Cortijo",20.596568280859998,-100.379079150576,Clínica San Francisco,20.59911641862643,-100.37070744132411,Hospital
"San Javier, Pathé, La Cruz, Jardines de Queretaro, Diligencias, Calesa, Bosques del Acueducto, El Cortijo",20.596568280859998,-100.379079150576,homeopatia de queretaro,20.58917267662068,-100.37653879789377,Pharmacy
"San Javier, Pathé, La Cruz, Jardines de Queretaro, Diligencias, Calesa, Bosques del Acueducto, El Cortijo",20.596568280859998,-100.379079150576,Conie Bogart Aromaterapia,20.600065729606733,-100.38601756095886,Supplement Shop
"San Javier, Pathé, La Cruz, Jardines de Queretaro, Diligencias, Calesa, Bosques del Acueducto, El Cortijo",20.596568280859998,-100.379079150576,Intermedic,20.595101594700893,-100.37709267531004,Medical Lab
"San Javier, Pathé, La Cruz, Jardines de Queretaro, Diligencias, Calesa, Bosques del Acueducto, El Cortijo",20.596568280859998,-100.379079150576,Dicorsa Diagnóstico Computarizado en Odontologia,20.59377480505196,-100.37617424478042,Dentist's Office
"San Javier, Pathé, La Cruz, Jardines de Queretaro, Diligencias, Calesa, Bosques del Acueducto, El Cortijo",20.596568280859998,-100.379079150576,ORTODONCIA PROFESIONAL,20.592560714363568,-100.37859059397853,Dentist's Office
"San Javier, Pathé, La Cruz, Jardines de Queretaro, Diligencias, Calesa, Bosques del Acueducto, El Cortijo",20.596568280859998,-100.379079150576,Psic. Jorge Luis Mendoza,20.595237565045565,-100.3774344921112,Mental Health Office
"San Javier, Pathé, La Cruz, Jardines de Queretaro, Diligencias, Calesa, Bosques del Acueducto, El Cortijo",20.596568280859998,-100.379079150576,Consultorio Dental Adei,20.599729563132446,-100.37586976237597,Dentist's Office
"San Javier, Pathé, La Cruz, Jardines de Queretaro, Diligencias, Calesa, Bosques del Acueducto, El Cortijo",20.596568280859998,-100.379079150576,Animal Park Hospital Veterinario,20.590462081353692,-100.37203714265944,Veterinarian
"San Javier, Pathé, La Cruz, Jardines de Queretaro, Diligencias, Calesa, Bosques del Acueducto, El Cortijo",20.596568280859998,-100.379079150576,Laboratorios Chopo,20.590315220909357,-100.37515137729731,Medical Lab
"San Javier, Pathé, La Cruz, Jardines de Queretaro, Diligencias, Calesa, Bosques del Acueducto, El Cortijo",20.596568280859998,-100.379079150576,Laboratorio Medicina y Diagnostico de Querétaro,20.5934964470507,-100.38664073959512,Medical Lab
"San Javier, Pathé, La Cruz, Jardines de Queretaro, Diligencias, Calesa, Bosques del Acueducto, El Cortijo",20.596568280859998,-100.379079150576,Implantoperio,20.592325025749794,-100.37313222885132,Dentist's Office
"San Javier, Pathé, La Cruz, Jardines de Queretaro, Diligencias, Calesa, Bosques del Acueducto, El Cortijo",20.596568280859998,-100.379079150576,CEO Centro De Estudios Odontológicos,20.590293,-100.375568,Dentist's Office
"San Javier, Pathé, La Cruz, Jardines de Queretaro, Diligencias, Calesa, Bosques del Acueducto, El Cortijo",20.596568280859998,-100.379079150576,Dental Expert,20.59774744165065,-100.37137857850153,Dentist's Office
"San Javier, Pathé, La Cruz, Jardines de Queretaro, Diligencias, Calesa, Bosques del Acueducto, El Cortijo",20.596568280859998,-100.379079150576,Wuotto Grupo Dental,20.591178812750154,-100.37282626172359,Dentist's Office
"Conjunto Seminario, Karina, La Peñita, Calesa 2a Sección, El Cortijo, El Oasis, Villa Los Arcos, El Cortijo II, Del Río",20.5996430883716,-100.37050099407499,Centro Dermatológico San Francisco,20.599075657030966,-100.37082977945292,Medical Center
"Conjunto Seminario, Karina, La Peñita, Calesa 2a Sección, El Cortijo, El Oasis, Villa Los Arcos, El Cortijo II, Del Río",20.5996430883716,-100.37050099407499,Farmacia Guadalajara,20.595148344997554,-100.3714544733684,Pharmacy
"Conjunto Seminario, Karina, La Peñita, Calesa 2a Sección, El Cortijo, El Oasis, Villa Los Arcos, El Cortijo II, Del Río",20.5996430883716,-100.37050099407499,Farmacias del Ahorro,20.600200391044968,-100.36758400388693,Pharmacy
"Conjunto Seminario, Karina, La Peñita, Calesa 2a Sección, El Cortijo, El Oasis, Villa Los Arcos, El Cortijo II, Del Río",20.5996430883716,-100.37050099407499,Clínica San Francisco,20.59911641862643,-100.37070744132411,Hospital
"Conjunto Seminario, Karina, La Peñita, Calesa 2a Sección, El Cortijo, El Oasis, Villa Los Arcos, El Cortijo II, Del Río",20.5996430883716,-100.37050099407499,Farmacias del Ahorro,20.601774156881117,-100.36519876770616,Pharmacy
"Conjunto Seminario, Karina, La Peñita, Calesa 2a Sección, El Cortijo, El Oasis, Villa Los Arcos, El Cortijo II, Del Río",20.5996430883716,-100.37050099407499,Farmacias del Ahorro,20.595329956886662,-100.37154062315864,Pharmacy
"Conjunto Seminario, Karina, La Peñita, Calesa 2a Sección, El Cortijo, El Oasis, Villa Los Arcos, El Cortijo II, Del Río",20.5996430883716,-100.37050099407499,Farmacias Guadalajara,20.59521784707949,-100.37144438178069,Pharmacy
"Conjunto Seminario, Karina, La Peñita, Calesa 2a Sección, El Cortijo, El Oasis, Villa Los Arcos, El Cortijo II, Del Río",20.5996430883716,-100.37050099407499,Laboratorio Medico Polanco B. Quintana,20.593528889516353,-100.36870152246823,Medical Center
"Conjunto Seminario, Karina, La Peñita, Calesa 2a Sección, El Cortijo, El Oasis, Villa Los Arcos, El Cortijo II, Del Río",20.5996430883716,-100.37050099407499,Clinica Medica Equilibrium Dentista Nutrición Psicología Medicina Estética Spa,20.598439,-100.37637,Medical Center
"Conjunto Seminario, Karina, La Peñita, Calesa 2a Sección, El Cortijo, El Oasis, Villa Los Arcos, El Cortijo II, Del Río",20.5996430883716,-100.37050099407499,Clínica médica del bosque,20.596009469787553,-100.37694832725983,Hospital
"Conjunto Seminario, Karina, La Peñita, Calesa 2a Sección, El Cortijo, El Oasis, Villa Los Arcos, El Cortijo II, Del Río",20.5996430883716,-100.37050099407499,Bio Vital,20.59477703941494,-100.3647543388443,Medical Center
"Conjunto Seminario, Karina, La Peñita, Calesa 2a Sección, El Cortijo, El Oasis, Villa Los Arcos, El Cortijo II, Del Río",20.5996430883716,-100.37050099407499,Sanatorio guadalupe,20.59206206556544,-100.36906758340658,Hospital
"Conjunto Seminario, Karina, La Peñita, Calesa 2a Sección, El Cortijo, El Oasis, Villa Los Arcos, El Cortijo II, Del Río",20.5996430883716,-100.37050099407499,"OrtoClínicas, Clínica Dental Familiar",20.599270660127672,-100.36931128324221,Dentist's Office
"Conjunto Seminario, Karina, La Peñita, Calesa 2a Sección, El Cortijo, El Oasis, Villa Los Arcos, El Cortijo II, Del Río",20.5996430883716,-100.37050099407499,Dental Expert,20.59774744165065,-100.37137857850153,Dentist's Office
"Conjunto Seminario, Karina, La Peñita, Calesa 2a Sección, El Cortijo, El Oasis, Villa Los Arcos, El Cortijo II, Del Río",20.5996430883716,-100.37050099407499,Consultorio Dental Adei,20.599729563132446,-100.37586976237597,Dentist's Office
"Conjunto Seminario, Karina, La Peñita, Calesa 2a Sección, El Cortijo, El Oasis, Villa Los Arcos, El Cortijo II, Del Río",20.5996430883716,-100.37050099407499,Intermedic,20.595101594700893,-100.37709267531004,Medical Lab
"Conjunto Seminario, Karina, La Peñita, Calesa 2a Sección, El Cortijo, El Oasis, Villa Los Arcos, El Cortijo II, Del Río",20.5996430883716,-100.37050099407499,Clinica Medica Carretas,20.592012405395508,-100.36892700195312,Medical Lab
"Conjunto Seminario, Karina, La Peñita, Calesa 2a Sección, El Cortijo, El Oasis, Villa Los Arcos, El Cortijo II, Del Río",20.5996430883716,-100.37050099407499,Dental Lozano (dentista),20.592077274715468,-100.3690856134514,Dentist's Office
"Conjunto Seminario, Karina, La Peñita, Calesa 2a Sección, El Cortijo, El Oasis, Villa Los Arcos, El Cortijo II, Del Río",20.5996430883716,-100.37050099407499,Implantoperio,20.592325025749794,-100.37313222885132,Dentist's Office
"Conjunto Seminario, Karina, La Peñita, Calesa 2a Sección, El Cortijo, El Oasis, Villa Los Arcos, El Cortijo II, Del Río",20.5996430883716,-100.37050099407499,Dicorsa Diagnóstico Computarizado en Odontologia,20.59377480505196,-100.37617424478042,Dentist's Office
"Conjunto Seminario, Karina, La Peñita, Calesa 2a Sección, El Cortijo, El Oasis, Villa Los Arcos, El Cortijo II, Del Río",20.5996430883716,-100.37050099407499,Wuotto Grupo Dental,20.591178812750154,-100.37282626172359,Dentist's Office
"Conjunto Seminario, Karina, La Peñita, Calesa 2a Sección, El Cortijo, El Oasis, Villa Los Arcos, El Cortijo II, Del Río",20.5996430883716,-100.37050099407499,Ortodoncista Arturo Corona Cortes,20.59080012240386,-100.37052314023767,Dentist's Office
"Conjunto Seminario, Karina, La Peñita, Calesa 2a Sección, El Cortijo, El Oasis, Villa Los Arcos, El Cortijo II, Del Río",20.5996430883716,-100.37050099407499,Psic. Jorge Luis Mendoza,20.595237565045565,-100.3774344921112,Mental Health Office
La Pastora,20.5929935393964,-100.379686491982,Clinica Orquideas,20.594126260538758,-100.37908105811566,Medical Center
La Pastora,20.5929935393964,-100.379686491982,Farmacias del Ahorro,20.595328352805158,-100.38073219423589,Pharmacy
La Pastora,20.5929935393964,-100.379686491982,Clinica Quiropractica Montaño,20.586697998982153,-100.37661557280582,Medical Center
La Pastora,20.5929935393964,-100.379686491982,Hospital De La Santa Cruz,20.595044791588496,-100.37979379429292,Hospital
La Pastora,20.5929935393964,-100.379686491982,Farmacia Guadalajara,20.595148344997554,-100.3714544733684,Pharmacy
La Pastora,20.5929935393964,-100.379686491982,Clínica médica del bosque,20.596009469787553,-100.37694832725983,Hospital
La Pastora,20.5929935393964,-100.379686491982,homeopatia de queretaro,20.58917267662068,-100.37653879789377,Pharmacy
La Pastora,20.5929935393964,-100.379686491982,Farmacias del Ahorro,20.586805020191033,-100.37607438651922,Pharmacy
La Pastora,20.5929935393964,-100.379686491982,Farmacia Guadalajara Circunvalación,20.597983,-100.381022,Pharmacy
La Pastora,20.5929935393964,-100.379686491982,Clinica Queretaro,20.58777439834461,-100.37647575715167,Hospital
La Pastora,20.5929935393964,-100.379686491982,nutrire,20.59460484572172,-100.38610339164734,Medical Center
La Pastora,20.5929935393964,-100.379686491982,INNÉOV,20.586899,-100.378142,Pharmacy
La Pastora,20.5929935393964,-100.379686491982,Clinica Medica Equilibrium Dentista Nutrición Psicología Medicina Estética Spa,20.598439,-100.37637,Medical Center
La Pastora,20.5929935393964,-100.379686491982,Farmancia Similares Pza Las Americas,20.587861548056537,-100.37410397112566,Pharmacy
La Pastora,20.5929935393964,-100.379686491982,Farmacias del Ahorro,20.595329956886662,-100.37154062315864,Pharmacy
La Pastora,20.5929935393964,-100.379686491982,Farmacias Guadalajara,20.59521784707949,-100.37144438178069,Pharmacy
La Pastora,20.5929935393964,-100.379686491982,Podologo,20.587774,-100.37264,Doctor's Office
La Pastora,20.5929935393964,-100.379686491982,ORTODONCIA PROFESIONAL,20.592560714363568,-100.37859059397853,Dentist's Office
La Pastora,20.5929935393964,-100.379686491982,Intermedic,20.595101594700893,-100.37709267531004,Medical Lab
La Pastora,20.5929935393964,-100.379686491982,Dicorsa Diagnóstico Computarizado en Odontologia,20.59377480505196,-100.37617424478042,Dentist's Office
La Pastora,20.5929935393964,-100.379686491982,Laboratorios Chopo,20.590315220909357,-100.37515137729731,Medical Lab
La Pastora,20.5929935393964,-100.379686491982,Animal Park Hospital Veterinario,20.590462081353692,-100.37203714265944,Veterinarian
La Pastora,20.5929935393964,-100.379686491982,CEO Centro De Estudios Odontológicos,20.590293,-100.375568,Dentist's Office
La Pastora,20.5929935393964,-100.379686491982,Psic. Jorge Luis Mendoza,20.595237565045565,-100.3774344921112,Mental Health Office
La Pastora,20.5929935393964,-100.379686491982,Laboratorio Medicina y Diagnostico de Querétaro,20.5934964470507,-100.38664073959512,Medical Lab
La Pastora,20.5929935393964,-100.379686491982,Implantoperio,20.592325025749794,-100.37313222885132,Dentist's Office
La Pastora,20.5929935393964,-100.379686491982,Laboratorios Chopo,20.58679585103639,-100.3833949306088,Medical Lab
La Pastora,20.5929935393964,-100.379686491982,Wuotto Grupo Dental,20.591178812750154,-100.37282626172359,Dentist's Office
La Pastora,20.5929935393964,-100.379686491982,LABORATORIO CHOPO,20.587010524986624,-100.38469923643203,Medical Lab
La Pastora,20.5929935393964,-100.379686491982,Consultorio Dental Adei,20.599729563132446,-100.37586976237597,Dentist's Office
La Pastora,20.5929935393964,-100.379686491982,Dentimex,20.585009,-100.38073,Dentist's Office
La Pastora,20.5929935393964,-100.379686491982,Dentalia,20.584932,-100.381166,Dentist's Office
La Pastora,20.5929935393964,-100.379686491982,Dental Médica,20.585910749403748,-100.38499539523625,Dentist's Office
La Pastora,20.5929935393964,-100.379686491982,Ortodoncista Arturo Corona Cortes,20.59080012240386,-100.37052314023767,Dentist's Office
La Pastora,20.5929935393964,-100.379686491982,Dentista,20.592176886488573,-100.38910612463951,Dentist's Office
"La Cruz, Goyeneche",20.5986050606408,-100.379830349074,Clinica Orquideas,20.594126260538758,-100.37908105811566,Medical Center
"La Cruz, Goyeneche",20.5986050606408,-100.379830349074,Farmacias del Ahorro,20.595328352805158,-100.38073219423589,Pharmacy
"La Cruz, Goyeneche",20.5986050606408,-100.379830349074,Farmacia Guadalajara Circunvalación,20.597983,-100.381022,Pharmacy
"La Cruz, Goyeneche",20.5986050606408,-100.379830349074,Hospital De La Santa Cruz,20.595044791588496,-100.37979379429292,Hospital
"La Cruz, Goyeneche",20.5986050606408,-100.379830349074,Clinica Medica Equilibrium Dentista Nutrición Psicología Medicina Estética Spa,20.598439,-100.37637,Medical Center
"La Cruz, Goyeneche",20.5986050606408,-100.379830349074,Farmacias Guadalajara,20.599493055186926,-100.3878803224737,Pharmacy
"La Cruz, Goyeneche",20.5986050606408,-100.379830349074,Clínica médica del bosque,20.596009469787553,-100.37694832725983,Hospital
"La Cruz, Goyeneche",20.5986050606408,-100.379830349074,Farmacia Guadalajara,20.595148344997554,-100.3714544733684,Pharmacy
"La Cruz, Goyeneche",20.5986050606408,-100.379830349074,Centro Dermatológico San Francisco,20.599075657030966,-100.37082977945292,Medical Center
"La Cruz, Goyeneche",20.5986050606408,-100.379830349074,Conie Bogart Aromaterapia,20.600065729606733,-100.38601756095886,Supplement Shop
"La Cruz, Goyeneche",20.5986050606408,-100.379830349074,nutrire,20.59460484572172,-100.38610339164734,Medical Center
"La Cruz, Goyeneche",20.5986050606408,-100.379830349074,Clínica San Francisco,20.59911641862643,-100.37070744132411,Hospital
"La Cruz, Goyeneche",20.5986050606408,-100.379830349074,Farmacias del Ahorro,20.595329956886662,-100.37154062315864,Pharmacy
"La Cruz, Goyeneche",20.5986050606408,-100.379830349074,Farmacias Guadalajara,20.59521784707949,-100.37144438178069,Pharmacy
"La Cruz, Goyeneche",20.5986050606408,-100.379830349074,Centro Quiropractico Integral,20.606897208190826,-100.38233757019043,Medical Center
"La Cruz, Goyeneche",20.5986050606408,-100.379830349074,Intermedic,20.595101594700893,-100.37709267531004,Medical Lab
"La Cruz, Goyeneche",20.5986050606408,-100.379830349074,Consultorio Dental Adei,20.599729563132446,-100.37586976237597,Dentist's Office
"La Cruz, Goyeneche",20.5986050606408,-100.379830349074,Dicorsa Diagnóstico Computarizado en Odontologia,20.59377480505196,-100.37617424478042,Dentist's Office
"La Cruz, Goyeneche",20.5986050606408,-100.379830349074,ORTODONCIA PROFESIONAL,20.592560714363568,-100.37859059397853,Dentist's Office
"La Cruz, Goyeneche",20.5986050606408,-100.379830349074,Psic. Jorge Luis Mendoza,20.595237565045565,-100.3774344921112,Mental Health Office
"La Cruz, Goyeneche",20.5986050606408,-100.379830349074,Laboratorio Medicina y Diagnostico de Querétaro,20.5934964470507,-100.38664073959512,Medical Lab
"La Cruz, Goyeneche",20.5986050606408,-100.379830349074,Dental Expert,20.59774744165065,-100.37137857850153,Dentist's Office
"La Cruz, Goyeneche",20.5986050606408,-100.379830349074,Implantoperio,20.592325025749794,-100.37313222885132,Dentist's Office
"San José Inn, Arboledas del Río",20.5993773335809,-100.38615034471,Farmacias Guadalajara,20.599493055186926,-100.3878803224737,Pharmacy
"San José Inn, Arboledas del Río",20.5993773335809,-100.38615034471,Laboratorio Corregidora,20.5956210287035,-100.3926768785027,Medical Center
"San José Inn, Arboledas del Río",20.5993773335809,-100.38615034471,Conie Bogart Aromaterapia,20.600065729606733,-100.38601756095886,Supplement Shop
"San José Inn, Arboledas del Río",20.5993773335809,-100.38615034471,Farmacias del Ahorro,20.605036517500118,-100.38995894179948,Pharmacy
"San José Inn, Arboledas del Río",20.5993773335809,-100.38615034471,Farmacias del Ahorro,20.595328352805158,-100.38073219423589,Pharmacy
"San José Inn, Arboledas del Río",20.5993773335809,-100.38615034471,Farmacia Guadalajara,20.60644047247657,-100.38701294736333,Pharmacy
"San José Inn, Arboledas del Río",20.5993773335809,-100.38615034471,Secretaría De Salud,20.594393575524382,-100.39026151674763,Medical Center
"San José Inn, Arboledas del Río",20.5993773335809,-100.38615034471,Clinica Orquideas,20.594126260538758,-100.37908105811566,Medical Center
"San José Inn, Arboledas del Río",20.5993773335809,-100.38615034471,nutrire,20.59460484572172,-100.38610339164734,Medical Center
"San José Inn, Arboledas del Río",20.5993773335809,-100.38615034471,Farmacias del Ahorro,20.59579301007659,-100.39274522876013,Pharmacy
"San José Inn, Arboledas del Río",20.5993773335809,-100.38615034471,Farmacia Guadalajara Circunvalación,20.597983,-100.381022,Pharmacy
"San José Inn, Arboledas del Río",20.5993773335809,-100.38615034471,Hospital del Sagrado Corazon,20.599133709271563,-100.39337292309114,Hospital
"San José Inn, Arboledas del Río",20.5993773335809,-100.38615034471,Hospital De La Santa Cruz,20.595044791588496,-100.37979379429292,Hospital
"San José Inn, Arboledas del Río",20.5993773335809,-100.38615034471,Farmacia Dérmica,20.597282279819595,-100.39413291943842,Pharmacy
"San José Inn, Arboledas del Río",20.5993773335809,-100.38615034471,Farmacia Guadalajara,20.597597685391094,-100.39431095123291,Pharmacy
"San José Inn, Arboledas del Río",20.5993773335809,-100.38615034471,Centro Quiropractico Integral,20.606897208190826,-100.38233757019043,Medical Center
"San José Inn, Arboledas del Río",20.5993773335809,-100.38615034471,SESEQ Adquisiciones,20.596593313663362,-100.39018416326381,Doctor's Office
"San José Inn, Arboledas del Río",20.5993773335809,-100.38615034471,Ópticas Devlyn,20.596444,-100.393887,Doctor's Office
"San José Inn, Arboledas del Río",20.5993773335809,-100.38615034471,Centro quiropractico integral,20.607379384140778,-100.3826755105746,Doctor's Office
"San José Inn, Arboledas del Río",20.5993773335809,-100.38615034471,ServiOptica Queretaro,20.597939,-100.394665,Optical Shop
"San José Inn, Arboledas del Río",20.5993773335809,-100.38615034471,Laboratorio Medicina y Diagnostico de Querétaro,20.5934964470507,-100.38664073959512,Medical Lab
"San José Inn, Arboledas del Río",20.5993773335809,-100.38615034471,Medica 4,20.595296810021196,-100.39244626737499,Dentist's Office
"San José Inn, Arboledas del Río",20.5993773335809,-100.38615034471,Dentista,20.592176886488573,-100.38910612463951,Dentist's Office
Universidad,20.598809625449398,-100.387290979598,Farmacias Guadalajara,20.599493055186926,-100.3878803224737,Pharmacy
Universidad,20.598809625449398,-100.387290979598,Laboratorio Corregidora,20.5956210287035,-100.3926768785027,Medical Center
Universidad,20.598809625449398,-100.387290979598,Conie Bogart Aromaterapia,20.600065729606733,-100.38601756095886,Supplement Shop
Universidad,20.598809625449398,-100.387290979598,Secretaría De Salud,20.594393575524382,-100.39026151674763,Medical Center
Universidad,20.598809625449398,-100.387290979598,Farmacias del Ahorro,20.605036517500118,-100.38995894179948,Pharmacy
Universidad,20.598809625449398,-100.387290979598,Farmacias del Ahorro,20.59579301007659,-100.39274522876013,Pharmacy
Universidad,20.598809625449398,-100.387290979598,Farmacias del Ahorro,20.595328352805158,-100.38073219423589,Pharmacy
Universidad,20.598809625449398,-100.387290979598,Farmacia Guadalajara,20.60644047247657,-100.38701294736333,Pharmacy
Universidad,20.598809625449398,-100.387290979598,nutrire,20.59460484572172,-100.38610339164734,Medical Center
Universidad,20.598809625449398,-100.387290979598,Farmacias del Ahorro,20.592040886080614,-100.39182925487606,Pharmacy
Universidad,20.598809625449398,-100.387290979598,Hospital del Sagrado Corazon,20.599133709271563,-100.39337292309114,Hospital
Universidad,20.598809625449398,-100.387290979598,Farmacia Guadalajara Circunvalación,20.597983,-100.381022,Pharmacy
Universidad,20.598809625449398,-100.387290979598,Farmacia Dérmica,20.597282279819595,-100.39413291943842,Pharmacy
Universidad,20.598809625449398,-100.387290979598,Farmacia Guadalajara,20.597597685391094,-100.39431095123291,Pharmacy
Universidad,20.598809625449398,-100.387290979598,Hospital De La Santa Cruz,20.595044791588496,-100.37979379429292,Hospital
Universidad,20.598809625449398,-100.387290979598,SESEQ Adquisiciones,20.596593313663362,-100.39018416326381,Doctor's Office
Universidad,20.598809625449398,-100.387290979598,Sanatorio Alcocer Pozo,20.59061785026444,-100.38987955347994,Hospital
Universidad,20.598809625449398,-100.387290979598,Farmacias Guadalajara,20.592149,-100.393237,Pharmacy
Universidad,20.598809625449398,-100.387290979598,Policlínica Médica De Querétaro,20.5912154420652,-100.39223513437494,Medical Center
Universidad,20.598809625449398,-100.387290979598,Ópticas Devlyn,20.596444,-100.393887,Doctor's Office
Universidad,20.598809625449398,-100.387290979598,ServiOptica Queretaro,20.597939,-100.394665,Optical Shop
Universidad,20.598809625449398,-100.387290979598,Laboratorio Medicina y Diagnostico de Querétaro,20.5934964470507,-100.38664073959512,Medical Lab
Universidad,20.598809625449398,-100.387290979598,Medica 4,20.595296810021196,-100.39244626737499,Dentist's Office
Universidad,20.598809625449398,-100.387290979598,Dentista,20.592176886488573,-100.38910612463951,Dentist's Office
Universidad,20.598809625449398,-100.387290979598,Laboratorio LABSA,20.590414650863956,-100.38907449150537,Medical Lab
"El Prado, Moderna, Las Misiones, Las Fuentes, San Ángel, El Carrizal, Cimatario, Casa Blanca, Estrella",20.580010934645813,-100.39489086170956,Hospital H+ Querétaro,20.584419260564264,-100.39994724459063,Hospital
"El Prado, Moderna, Las Misiones, Las Fuentes, San Ángel, El Carrizal, Cimatario, Casa Blanca, Estrella",20.580010934645813,-100.39489086170956,Farmacia del Ahorro,20.584274,-100.394139,Pharmacy
"El Prado, Moderna, Las Misiones, Las Fuentes, San Ángel, El Carrizal, Cimatario, Casa Blanca, Estrella",20.580010934645813,-100.39489086170956,salud digna,20.58674255376263,-100.39547810202346,Medical Center
"El Prado, Moderna, Las Misiones, Las Fuentes, San Ángel, El Carrizal, Cimatario, Casa Blanca, Estrella",20.580010934645813,-100.39489086170956,Farmacia Guadalajara,20.58516005789691,-100.39074403546222,Pharmacy
"El Prado, Moderna, Las Misiones, Las Fuentes, San Ángel, El Carrizal, Cimatario, Casa Blanca, Estrella",20.580010934645813,-100.39489086170956,Laboratorio Medico Polanco,20.581766340250937,-100.39777843407694,Medical Center
"El Prado, Moderna, Las Misiones, Las Fuentes, San Ángel, El Carrizal, Cimatario, Casa Blanca, Estrella",20.580010934645813,-100.39489086170956,Clinicas Perifericas,20.583613969705617,-100.39457720435125,Hospital
"El Prado, Moderna, Las Misiones, Las Fuentes, San Ángel, El Carrizal, Cimatario, Casa Blanca, Estrella",20.580010934645813,-100.39489086170956,Grupo Médico Integral,20.583386,-100.393095,Medical Center
"El Prado, Moderna, Las Misiones, Las Fuentes, San Ángel, El Carrizal, Cimatario, Casa Blanca, Estrella",20.580010934645813,-100.39489086170956,SAME Diagnostic,20.58392382835953,-100.39663959251273,Medical Center
"El Prado, Moderna, Las Misiones, Las Fuentes, San Ángel, El Carrizal, Cimatario, Casa Blanca, Estrella",20.580010934645813,-100.39489086170956,Farmacias del Ahorro,20.586441769394774,-100.39649219717529,Pharmacy
"El Prado, Moderna, Las Misiones, Las Fuentes, San Ángel, El Carrizal, Cimatario, Casa Blanca, Estrella",20.580010934645813,-100.39489086170956,Especialidades Medicas San Miguel,20.580347,-100.394222,Doctor's Office
"El Prado, Moderna, Las Misiones, Las Fuentes, San Ángel, El Carrizal, Cimatario, Casa Blanca, Estrella",20.580010934645813,-100.39489086170956,Farmacias del Ahorro,20.583010900216188,-100.38774315482293,Pharmacy
"El Prado, Moderna, Las Misiones, Las Fuentes, San Ángel, El Carrizal, Cimatario, Casa Blanca, Estrella",20.580010934645813,-100.39489086170956,Prodental Deposito Dental,20.584031516498456,-100.38974046707153,Pharmacy
"El Prado, Moderna, Las Misiones, Las Fuentes, San Ángel, El Carrizal, Cimatario, Casa Blanca, Estrella",20.580010934645813,-100.39489086170956,Medica Tec100,20.584220599564258,-100.39993768292331,Hospital
"El Prado, Moderna, Las Misiones, Las Fuentes, San Ángel, El Carrizal, Cimatario, Casa Blanca, Estrella",20.580010934645813,-100.39489086170956,Distribuidora GOBA,20.5799790971077,-100.38809639771702,Medical Center
"El Prado, Moderna, Las Misiones, Las Fuentes, San Ángel, El Carrizal, Cimatario, Casa Blanca, Estrella",20.580010934645813,-100.39489086170956,Hospital Tec 100 Torre 3,20.584102,-100.4005,Hospital
"El Prado, Moderna, Las Misiones, Las Fuentes, San Ángel, El Carrizal, Cimatario, Casa Blanca, Estrella",20.580010934645813,-100.39489086170956,Núcleo Médico Lomas De Casa Blanca,20.573244,-100.394348,Medical Center
"El Prado, Moderna, Las Misiones, Las Fuentes, San Ángel, El Carrizal, Cimatario, Casa Blanca, Estrella",20.580010934645813,-100.39489086170956,Hospital Santa Rosa de Viterbo,20.588505998594307,-100.3972142996623,Hospital
"El Prado, Moderna, Las Misiones, Las Fuentes, San Ángel, El Carrizal, Cimatario, Casa Blanca, Estrella",20.580010934645813,-100.39489086170956,Clinica fray pedro de gante,20.58212598449834,-100.39252034808528,Doctor's Office
"El Prado, Moderna, Las Misiones, Las Fuentes, San Ángel, El Carrizal, Cimatario, Casa Blanca, Estrella",20.580010934645813,-100.39489086170956,Salupsic,20.58350866874703,-100.38789670594196,Medical Center
"El Prado, Moderna, Las Misiones, Las Fuentes, San Ángel, El Carrizal, Cimatario, Casa Blanca, Estrella",20.580010934645813,-100.39489086170956,Clinica Medica Del Rayo,20.582553993126023,-100.3925477725279,Doctor's Office
"El Prado, Moderna, Las Misiones, Las Fuentes, San Ángel, El Carrizal, Cimatario, Casa Blanca, Estrella",20.580010934645813,-100.39489086170956,Hospital Luis Martin,20.58768903499588,-100.39467710021589,Hospital
"El Prado, Moderna, Las Misiones, Las Fuentes, San Ángel, El Carrizal, Cimatario, Casa Blanca, Estrella",20.580010934645813,-100.39489086170956,Consultorios Médicos y Odontológicos,20.58341082340317,-100.39323338629522,Doctor's Office
"El Prado, Moderna, Las Misiones, Las Fuentes, San Ángel, El Carrizal, Cimatario, Casa Blanca, Estrella",20.580010934645813,-100.39489086170956,Radiología y Ultrasonido Milenio,20.58373106824978,-100.3937380013474,Doctor's Office
"El Prado, Moderna, Las Misiones, Las Fuentes, San Ángel, El Carrizal, Cimatario, Casa Blanca, Estrella",20.580010934645813,-100.39489086170956,Farmacia Guadalajara,20.58394495329597,-100.40164359368423,Pharmacy
"El Prado, Moderna, Las Misiones, Las Fuentes, San Ángel, El Carrizal, Cimatario, Casa Blanca, Estrella",20.580010934645813,-100.39489086170956,Clinica Dematologica MR,20.583190467184632,-100.38993888294898,Doctor's Office
"El Prado, Moderna, Las Misiones, Las Fuentes, San Ángel, El Carrizal, Cimatario, Casa Blanca, Estrella",20.580010934645813,-100.39489086170956,Medicos Pediatras,20.584461749434386,-100.39056226437263,Doctor's Office
"El Prado, Moderna, Las Misiones, Las Fuentes, San Ángel, El Carrizal, Cimatario, Casa Blanca, Estrella",20.580010934645813,-100.39489086170956,Clinica Mariano De Las Casas,20.580524376784407,-100.38835741412827,Doctor's Office
"El Prado, Moderna, Las Misiones, Las Fuentes, San Ángel, El Carrizal, Cimatario, Casa Blanca, Estrella",20.580010934645813,-100.39489086170956,Tec100 Torre 2,20.584145347462638,-100.40038046658013,Doctor's Office
"El Prado, Moderna, Las Misiones, Las Fuentes, San Ángel, El Carrizal, Cimatario, Casa Blanca, Estrella",20.580010934645813,-100.39489086170956,Instituto de Corazon de Queretaro,20.58448050878063,-100.40012127829642,Doctor's Office
"El Prado, Moderna, Las Misiones, Las Fuentes, San Ángel, El Carrizal, Cimatario, Casa Blanca, Estrella",20.580010934645813,-100.39489086170956,Grupo Médico Zaragoza,20.586133368719405,-100.39769952936594,Doctor's Office
"El Prado, Moderna, Las Misiones, Las Fuentes, San Ángel, El Carrizal, Cimatario, Casa Blanca, Estrella",20.580010934645813,-100.39489086170956,Medical Center,20.586082362822125,-100.39825772251116,Doctor's Office
"El Prado, Moderna, Las Misiones, Las Fuentes, San Ángel, El Carrizal, Cimatario, Casa Blanca, Estrella",20.580010934645813,-100.39489086170956,A&K Medical,20.5835563834186,-100.40356210060038,Doctor's Office
"El Prado, Moderna, Las Misiones, Las Fuentes, San Ángel, El Carrizal, Cimatario, Casa Blanca, Estrella",20.580010934645813,-100.39489086170956,Urgencias Hospital Médica Tec 100,20.584156029578157,-100.40047378476528,Emergency Room
"El Prado, Moderna, Las Misiones, Las Fuentes, San Ángel, El Carrizal, Cimatario, Casa Blanca, Estrella",20.580010934645813,-100.39489086170956,Niembro y Niembro,20.58451,-100.396712,Dentist's Office
"El Prado, Moderna, Las Misiones, Las Fuentes, San Ángel, El Carrizal, Cimatario, Casa Blanca, Estrella",20.580010934645813,-100.39489086170956,Laboratorio Biomedico de Queretaro,20.584798293226935,-100.39849358794356,Medical Lab
"El Prado, Moderna, Las Misiones, Las Fuentes, San Ángel, El Carrizal, Cimatario, Casa Blanca, Estrella",20.580010934645813,-100.39489086170956,Dentista Roberto Ayala,20.583027,-100.390506,Dentist's Office
"El Prado, Moderna, Las Misiones, Las Fuentes, San Ángel, El Carrizal, Cimatario, Casa Blanca, Estrella",20.580010934645813,-100.39489086170956,Laboratorio H+,20.58414913445513,-100.39993171803381,Medical Lab
"El Prado, Moderna, Las Misiones, Las Fuentes, San Ángel, El Carrizal, Cimatario, Casa Blanca, Estrella",20.580010934645813,-100.39489086170956,"ORTOQRO, Consultorio de Ortodoncia",20.58257263581219,-100.40137052536011,Dentist's Office
"El Prado, Moderna, Las Misiones, Las Fuentes, San Ángel, El Carrizal, Cimatario, Casa Blanca, Estrella",20.580010934645813,-100.39489086170956,DENTAL CENTER odotonlogia integral,20.587440035113364,-100.39366121191877,Dentist's Office
"El Prado, Moderna, Las Misiones, Las Fuentes, San Ángel, El Carrizal, Cimatario, Casa Blanca, Estrella",20.580010934645813,-100.39489086170956,san joaquin consultorios,20.581057,-100.389292,Mental Health Office
"El Prado, Moderna, Las Misiones, Las Fuentes, San Ángel, El Carrizal, Cimatario, Casa Blanca, Estrella",20.580010934645813,-100.39489086170956,Clinica Dental Universitaria,20.584656598668484,-100.38811060587939,Dentist's Office
"El Prado, Moderna, Las Misiones, Las Fuentes, San Ángel, El Carrizal, Cimatario, Casa Blanca, Estrella",20.580010934645813,-100.39489086170956,Centro Médico Veterinario Dr. Benjamín Solorio,20.58686649347516,-100.40074805366807,Veterinarian
Rinconada Fray Juan,20.5812310826573,-100.39577955801799,Hospital H+ Querétaro,20.584419260564264,-100.39994724459063,Hospital
Rinconada Fray Juan,20.5812310826573,-100.39577955801799,salud digna,20.58674255376263,-100.39547810202346,Medical Center
Rinconada Fray Juan,20.5812310826573,-100.39577955801799,Farmacia del Ahorro,20.584274,-100.394139,Pharmacy
Rinconada Fray Juan,20.5812310826573,-100.39577955801799,Laboratorio Medico Polanco,20.581766340250937,-100.39777843407694,Medical Center
Rinconada Fray Juan,20.5812310826573,-100.39577955801799,Farmacia Guadalajara,20.58516005789691,-100.39074403546222,Pharmacy
Rinconada Fray Juan,20.5812310826573,-100.39577955801799,Clinicas Perifericas,20.583613969705617,-100.39457720435125,Hospital
Rinconada Fray Juan,20.5812310826573,-100.39577955801799,SAME Diagnostic,20.58392382835953,-100.39663959251273,Medical Center
Rinconada Fray Juan,20.5812310826573,-100.39577955801799,Grupo Médico Integral,20.583386,-100.393095,Medical Center
Rinconada Fray Juan,20.5812310826573,-100.39577955801799,Farmacias del Ahorro,20.586441769394774,-100.39649219717529,Pharmacy
Rinconada Fray Juan,20.5812310826573,-100.39577955801799,Medica Tec100,20.584220599564258,-100.39993768292331,Hospital
Rinconada Fray Juan,20.5812310826573,-100.39577955801799,Hospital Tec 100 Torre 3,20.584102,-100.4005,Hospital
Rinconada Fray Juan,20.5812310826573,-100.39577955801799,Hospital Santa Rosa de Viterbo,20.588505998594307,-100.3972142996623,Hospital
Rinconada Fray Juan,20.5812310826573,-100.39577955801799,Especialidades Medicas San Miguel,20.580347,-100.394222,Doctor's Office
Rinconada Fray Juan,20.5812310826573,-100.39577955801799,Prodental Deposito Dental,20.584031516498456,-100.38974046707153,Pharmacy
Rinconada Fray Juan,20.5812310826573,-100.39577955801799,Farmacias del Ahorro,20.583010900216188,-100.38774315482293,Pharmacy
Rinconada Fray Juan,20.5812310826573,-100.39577955801799,Hospital Luis Martin,20.58768903499588,-100.39467710021589,Hospital
Rinconada Fray Juan,20.5812310826573,-100.39577955801799,Farmacia Guadalajara,20.58394495329597,-100.40164359368423,Pharmacy
Rinconada Fray Juan,20.5812310826573,-100.39577955801799,Clinica fray pedro de gante,20.58212598449834,-100.39252034808528,Doctor's Office
Rinconada Fray Juan,20.5812310826573,-100.39577955801799,Consultorios Médicos y Odontológicos,20.58341082340317,-100.39323338629522,Doctor's Office
Rinconada Fray Juan,20.5812310826573,-100.39577955801799,Distribuidora GOBA,20.5799790971077,-100.38809639771702,Medical Center
Rinconada Fray Juan,20.5812310826573,-100.39577955801799,Clinica Medica Del Rayo,20.582553993126023,-100.3925477725279,Doctor's Office
Rinconada Fray Juan,20.5812310826573,-100.39577955801799,Medicina Transfusional de Querétaro (Banco de Sangre),20.587538716078875,-100.40032991634808,Hospital
Rinconada Fray Juan,20.5812310826573,-100.39577955801799,Farmacias Similares,20.588842391967773,-100.39704132080078,Pharmacy
Rinconada Fray Juan,20.5812310826573,-100.39577955801799,Salupsic,20.58350866874703,-100.38789670594196,Medical Center
Rinconada Fray Juan,20.5812310826573,-100.39577955801799,Núcleo Médico Lomas De Casa Blanca,20.573244,-100.394348,Medical Center
Rinconada Fray Juan,20.5812310826573,-100.39577955801799,Centro de Salud Dr. Pedro Escobedo,20.588855910512187,-100.39889761182215,Medical Center
Rinconada Fray Juan,20.5812310826573,-100.39577955801799,Lotus: Farmacia Homeopática,20.588880122982893,-100.39256751537323,Pharmacy
Rinconada Fray Juan,20.5812310826573,-100.39577955801799,Farmacias del Ahorro,20.58814196734894,-100.38973955277075,Pharmacy
Rinconada Fray Juan,20.5812310826573,-100.39577955801799,IMSS,20.58151733317908,-100.40510355518852,Hospital
Rinconada Fray Juan,20.5812310826573,-100.39577955801799,Sala De La Salud (Espera) Del Hgr1 Del Imss,20.58217712122349,-100.40525399929473,Hospital
Rinconada Fray Juan,20.5812310826573,-100.39577955801799,Tec100 Torre 2,20.584145347462638,-100.40038046658013,Doctor's Office
Rinconada Fray Juan,20.5812310826573,-100.39577955801799,Instituto de Corazon de Queretaro,20.58448050878063,-100.40012127829642,Doctor's Office
Rinconada Fray Juan,20.5812310826573,-100.39577955801799,Grupo Médico Zaragoza,20.586133368719405,-100.39769952936594,Doctor's Office
Rinconada Fray Juan,20.5812310826573,-100.39577955801799,Medical Center,20.586082362822125,-100.39825772251116,Doctor's Office
Rinconada Fray Juan,20.5812310826573,-100.39577955801799,Clinica Dematologica MR,20.583190467184632,-100.38993888294898,Doctor's Office
Rinconada Fray Juan,20.5812310826573,-100.39577955801799,Medicos Pediatras,20.584461749434386,-100.39056226437263,Doctor's Office
Rinconada Fray Juan,20.5812310826573,-100.39577955801799,Clinica Mariano De Las Casas,20.580524376784407,-100.38835741412827,Doctor's Office
Rinconada Fray Juan,20.5812310826573,-100.39577955801799,A&K Medical,20.5835563834186,-100.40356210060038,Doctor's Office
Rinconada Fray Juan,20.5812310826573,-100.39577955801799,Medicina transfusional de Querétaro,20.58756555126027,-100.40038601889187,Doctor's Office
Rinconada Fray Juan,20.5812310826573,-100.39577955801799,Psiquiatría Del Hgr1 Imss Qro,20.580479,-100.40512,Doctor's Office
Rinconada Fray Juan,20.5812310826573,-100.39577955801799,Urgencias Hospital Médica Tec 100,20.584156029578157,-100.40047378476528,Emergency Room
Rinconada Fray Juan,20.5812310826573,-100.39577955801799,Niembro y Niembro,20.58451,-100.396712,Dentist's Office
Rinconada Fray Juan,20.5812310826573,-100.39577955801799,Laboratorio Biomedico de Queretaro,20.584798293226935,-100.39849358794356,Medical Lab
Rinconada Fray Juan,20.5812310826573,-100.39577955801799,Laboratorio H+,20.58414913445513,-100.39993171803381,Medical Lab
Rinconada Fray Juan,20.5812310826573,-100.39577955801799,Dentista Roberto Ayala,20.583027,-100.390506,Dentist's Office
Rinconada Fray Juan,20.5812310826573,-100.39577955801799,"ORTOQRO, Consultorio de Ortodoncia",20.58257263581219,-100.40137052536011,Dentist's Office
Rinconada Fray Juan,20.5812310826573,-100.39577955801799,DENTAL CENTER odotonlogia integral,20.587440035113364,-100.39366121191877,Dentist's Office
Rinconada Fray Juan,20.5812310826573,-100.39577955801799,Odontologia Restauradora ( Dra. Eva Campos),20.588786,-100.397169,Dentist's Office
Rinconada Fray Juan,20.5812310826573,-100.39577955801799,Clinica Dental Universitaria,20.584656598668484,-100.38811060587939,Dentist's Office
Rinconada Fray Juan,20.5812310826573,-100.39577955801799,Sorriso Clínica Dental,20.588118674394664,-100.40085704110338,Dentist's Office
Mariano de las Casas,20.579183291477,-100.401476634753,Hospital H+ Querétaro,20.584419260564264,-100.39994724459063,Hospital
Mariano de las Casas,20.579183291477,-100.401476634753,Farmacias Especializadas,20.58297950576052,-100.40633844443897,Pharmacy
Mariano de las Casas,20.579183291477,-100.401476634753,Hospital General Querétaro,20.579968025440067,-100.40546560882501,Hospital
Mariano de las Casas,20.579183291477,-100.401476634753,Farmacias del Ahorro,20.582515333751513,-100.40757667887759,Pharmacy
Mariano de las Casas,20.579183291477,-100.401476634753,Laboratorio Medico Polanco,20.581766340250937,-100.39777843407694,Medical Center
Mariano de las Casas,20.579183291477,-100.401476634753,Capacits,20.578663,-100.405487,Hospital
Mariano de las Casas,20.579183291477,-100.401476634753,Urgencias HGQ,20.579870063684183,-100.40567406460552,Hospital
Mariano de las Casas,20.579183291477,-100.401476634753,Centro Estatal de la Transfusión Sanguínea,20.58007393475267,-100.40564663618595,Hospital
Mariano de las Casas,20.579183291477,-100.401476634753,IMSS,20.58151733317908,-100.40510355518852,Hospital
Mariano de las Casas,20.579183291477,-100.401476634753,Hospital General Regional #1 IMSS,20.582246374273826,-100.4057673212942,Hospital
Mariano de las Casas,20.579183291477,-100.401476634753,Unidad De Investigación Epidemiológica Y En Servicios De Salud,20.582645663256613,-100.40426402606194,Hospital
Mariano de las Casas,20.579183291477,-100.401476634753,Jefatura De Medicina Interna HGR 1 IMSS,20.580989047151572,-100.40597029206617,Hospital
Mariano de las Casas,20.579183291477,-100.401476634753,Sala De La Salud (Espera) Del Hgr1 Del Imss,20.58217712122349,-100.40525399929473,Hospital
Mariano de las Casas,20.579183291477,-100.401476634753,Hospital General Regional 1,20.581870990276457,-100.40553692259068,Hospital
Mariano de las Casas,20.579183291477,-100.401476634753,Direccion Del Imss HGZ1,20.58146222431911,-100.40584653472523,Hospital
Mariano de las Casas,20.579183291477,-100.401476634753,Farmacia del Ahorro,20.584274,-100.394139,Pharmacy
Mariano de las Casas,20.579183291477,-100.401476634753,Hospital Tec 100 Torre 3,20.584102,-100.4005,Hospital
Mariano de las Casas,20.579183291477,-100.401476634753,Instituto Mexicano del Seguro Social,20.583011285445927,-100.40527361050422,Hospital
Mariano de las Casas,20.579183291477,-100.401476634753,Medica Tec100,20.584220599564258,-100.39993768292331,Hospital
Mariano de las Casas,20.579183291477,-100.401476634753,Farmacia Guadalajara,20.58394495329597,-100.40164359368423,Pharmacy
Mariano de las Casas,20.579183291477,-100.401476634753,Unidad Médica de Atención Ambulatoria IMSS,20.571986065173085,-100.40001933138967,Medical Center
Mariano de las Casas,20.579183291477,-100.401476634753,Medicina Física Y Rehabilitación Dr Tonatiuh,20.579151288153607,-100.40808572566732,Medical Center
Mariano de las Casas,20.579183291477,-100.401476634753,SAME Diagnostic,20.58392382835953,-100.39663959251273,Medical Center
Mariano de las Casas,20.579183291477,-100.401476634753,Farmacias del Ahorro,20.586441769394774,-100.39649219717529,Pharmacy
Mariano de las Casas,20.579183291477,-100.401476634753,Unidad Médica La Capilla,20.58071613309125,-100.40909896325776,Hospital
Mariano de las Casas,20.579183291477,-100.401476634753,INNÉOV,20.58357,-100.407848,Pharmacy
Mariano de las Casas,20.579183291477,-100.401476634753,Psiquiatría Del Hgr1 Imss Qro,20.580479,-100.40512,Doctor's Office
Mariano de las Casas,20.579183291477,-100.401476634753,Clinicas Perifericas,20.583613969705617,-100.39457720435125,Hospital
Mariano de las Casas,20.579183291477,-100.401476634753,Clinica 13 Imss,20.58079148958035,-100.40576243690766,Doctor's Office
Mariano de las Casas,20.579183291477,-100.401476634753,Medicina Transfusional de Querétaro (Banco de Sangre),20.587538716078875,-100.40032991634808,Hospital
Mariano de las Casas,20.579183291477,-100.401476634753,Farmacias del Ahorro,20.580523001516084,-100.40964837974882,Pharmacy
Mariano de las Casas,20.579183291477,-100.401476634753,St. Joseph,20.58334371165746,-100.40939233805308,Medical Center
Mariano de las Casas,20.579183291477,-100.401476634753,A&K Medical,20.5835563834186,-100.40356210060038,Doctor's Office
Mariano de las Casas,20.579183291477,-100.401476634753,Grupo Médico Integral,20.583386,-100.393095,Medical Center
Mariano de las Casas,20.579183291477,-100.401476634753,Núcleo Médico Lomas De Casa Blanca,20.573244,-100.394348,Medical Center
Mariano de las Casas,20.579183291477,-100.401476634753,Tec100 Torre 2,20.584145347462638,-100.40038046658013,Doctor's Office
Mariano de las Casas,20.579183291477,-100.401476634753,Traumatología Y Ortopedia Del HGR1 Del Imss,20.581873,-100.406207,Doctor's Office
Mariano de las Casas,20.579183291477,-100.401476634753,Instituto de Corazon de Queretaro,20.58448050878063,-100.40012127829642,Doctor's Office
Mariano de las Casas,20.579183291477,-100.401476634753,Clinica Dermatologica De Queretaro,20.579596,-100.408386,Doctor's Office
Mariano de las Casas,20.579183291477,-100.401476634753,Especialidades Medicas San Miguel,20.580347,-100.394222,Doctor's Office
Mariano de las Casas,20.579183291477,-100.401476634753,clina 13 UMF (Unidad de Medicina Familiar #13 IMSS),20.58367281092006,-100.40783545017942,Doctor's Office
Mariano de las Casas,20.579183291477,-100.401476634753,Medical Center,20.586082362822125,-100.39825772251116,Doctor's Office
Mariano de las Casas,20.579183291477,-100.401476634753,Grupo Médico Zaragoza,20.586133368719405,-100.39769952936594,Doctor's Office
Mariano de las Casas,20.579183291477,-100.401476634753,Medicina transfusional de Querétaro,20.58756555126027,-100.40038601889187,Doctor's Office
Mariano de las Casas,20.579183291477,-100.401476634753,Radiología y Ultrasonido Milenio,20.58373106824978,-100.3937380013474,Doctor's Office
Mariano de las Casas,20.579183291477,-100.401476634753,Consultorios Médicos y Odontológicos,20.58341082340317,-100.39323338629522,Doctor's Office
Mariano de las Casas,20.579183291477,-100.401476634753,Clinica fray pedro de gante,20.58212598449834,-100.39252034808528,Doctor's Office
Mariano de las Casas,20.579183291477,-100.401476634753,Urgencias Hospital Médica Tec 100,20.584156029578157,-100.40047378476528,Emergency Room
Mariano de las Casas,20.579183291477,-100.401476634753,Urgencias IMSS HGR#1,20.582969383811566,-100.40530103881085,Emergency Room
Mariano de las Casas,20.579183291477,-100.401476634753,"ORTOQRO, Consultorio de Ortodoncia",20.58257263581219,-100.40137052536011,Dentist's Office
"Andalucía, Alameda, Aragón, Las Palmas, Mercurio, Observatorio, Panamericano, Valle Alameda, Villas del Sur",20.583606564144898,-100.381213845791,Clinica Quiropractica Montaño,20.586697998982153,-100.37661557280582,Medical Center
"Andalucía, Alameda, Aragón, Las Palmas, Mercurio, Observatorio, Panamericano, Valle Alameda, Villas del Sur",20.583606564144898,-100.381213845791,Farmacias del Ahorro,20.586805020191033,-100.37607438651922,Pharmacy
"Andalucía, Alameda, Aragón, Las Palmas, Mercurio, Observatorio, Panamericano, Valle Alameda, Villas del Sur",20.583606564144898,-100.381213845791,INNÉOV,20.586899,-100.378142,Pharmacy
"Andalucía, Alameda, Aragón, Las Palmas, Mercurio, Observatorio, Panamericano, Valle Alameda, Villas del Sur",20.583606564144898,-100.381213845791,Farmacias del Ahorro,20.583010900216188,-100.38774315482293,Pharmacy
"Andalucía, Alameda, Aragón, Las Palmas, Mercurio, Observatorio, Panamericano, Valle Alameda, Villas del Sur",20.583606564144898,-100.381213845791,Clinica Queretaro,20.58777439834461,-100.37647575715167,Hospital
"Andalucía, Alameda, Aragón, Las Palmas, Mercurio, Observatorio, Panamericano, Valle Alameda, Villas del Sur",20.583606564144898,-100.381213845791,Salupsic,20.58350866874703,-100.38789670594196,Medical Center
"Andalucía, Alameda, Aragón, Las Palmas, Mercurio, Observatorio, Panamericano, Valle Alameda, Villas del Sur",20.583606564144898,-100.381213845791,homeopatia de queretaro,20.58917267662068,-100.37653879789377,Pharmacy
"Andalucía, Alameda, Aragón, Las Palmas, Mercurio, Observatorio, Panamericano, Valle Alameda, Villas del Sur",20.583606564144898,-100.381213845791,Distribuidora GOBA,20.5799790971077,-100.38809639771702,Medical Center
"Andalucía, Alameda, Aragón, Las Palmas, Mercurio, Observatorio, Panamericano, Valle Alameda, Villas del Sur",20.583606564144898,-100.381213845791,Clinica De Especialidades Plazas Del Sol,20.576779012132494,-100.37775280845345,Medical Center
"Andalucía, Alameda, Aragón, Las Palmas, Mercurio, Observatorio, Panamericano, Valle Alameda, Villas del Sur",20.583606564144898,-100.381213845791,Farmancia Similares Pza Las Americas,20.587861548056537,-100.37410397112566,Pharmacy
"Andalucía, Alameda, Aragón, Las Palmas, Mercurio, Observatorio, Panamericano, Valle Alameda, Villas del Sur",20.583606564144898,-100.381213845791,Prodental Deposito Dental,20.584031516498456,-100.38974046707153,Pharmacy
"Andalucía, Alameda, Aragón, Las Palmas, Mercurio, Observatorio, Panamericano, Valle Alameda, Villas del Sur",20.583606564144898,-100.381213845791,Farmacia Guadalajara,20.575181606024486,-100.38433343344722,Pharmacy
"Andalucía, Alameda, Aragón, Las Palmas, Mercurio, Observatorio, Panamericano, Valle Alameda, Villas del Sur",20.583606564144898,-100.381213845791,Atención Médica Especializada en Urgencias,20.577062189626673,-100.37604524662244,Hospital
"Andalucía, Alameda, Aragón, Las Palmas, Mercurio, Observatorio, Panamericano, Valle Alameda, Villas del Sur",20.583606564144898,-100.381213845791,Clinica Mariano De Las Casas,20.580524376784407,-100.38835741412827,Doctor's Office
"Andalucía, Alameda, Aragón, Las Palmas, Mercurio, Observatorio, Panamericano, Valle Alameda, Villas del Sur",20.583606564144898,-100.381213845791,Clinica Dematologica MR,20.583190467184632,-100.38993888294898,Doctor's Office
"Andalucía, Alameda, Aragón, Las Palmas, Mercurio, Observatorio, Panamericano, Valle Alameda, Villas del Sur",20.583606564144898,-100.381213845791,Medicos Pediatras,20.584461749434386,-100.39056226437263,Doctor's Office
"Andalucía, Alameda, Aragón, Las Palmas, Mercurio, Observatorio, Panamericano, Valle Alameda, Villas del Sur",20.583606564144898,-100.381213845791,Dentimex,20.585009,-100.38073,Dentist's Office
"Andalucía, Alameda, Aragón, Las Palmas, Mercurio, Observatorio, Panamericano, Valle Alameda, Villas del Sur",20.583606564144898,-100.381213845791,Dentalia,20.584932,-100.381166,Dentist's Office
"Andalucía, Alameda, Aragón, Las Palmas, Mercurio, Observatorio, Panamericano, Valle Alameda, Villas del Sur",20.583606564144898,-100.381213845791,Especialidades dentales,20.582395038158232,-100.38017470870452,Dentist's Office
"Andalucía, Alameda, Aragón, Las Palmas, Mercurio, Observatorio, Panamericano, Valle Alameda, Villas del Sur",20.583606564144898,-100.381213845791,Laboratorios Chopo,20.58679585103639,-100.3833949306088,Medical Lab
"Andalucía, Alameda, Aragón, Las Palmas, Mercurio, Observatorio, Panamericano, Valle Alameda, Villas del Sur",20.583606564144898,-100.381213845791,Fastdent,20.582606,-100.384444,Dentist's Office
"Andalucía, Alameda, Aragón, Las Palmas, Mercurio, Observatorio, Panamericano, Valle Alameda, Villas del Sur",20.583606564144898,-100.381213845791,LABORATORIO CHOPO,20.587010524986624,-100.38469923643203,Medical Lab
"Andalucía, Alameda, Aragón, Las Palmas, Mercurio, Observatorio, Panamericano, Valle Alameda, Villas del Sur",20.583606564144898,-100.381213845791,Dental Médica,20.585910749403748,-100.38499539523625,Dentist's Office
"Andalucía, Alameda, Aragón, Las Palmas, Mercurio, Observatorio, Panamericano, Valle Alameda, Villas del Sur",20.583606564144898,-100.381213845791,Clinica Dental Universitaria,20.584656598668484,-100.38811060587939,Dentist's Office
"Andalucía, Alameda, Aragón, Las Palmas, Mercurio, Observatorio, Panamericano, Valle Alameda, Villas del Sur",20.583606564144898,-100.381213845791,Dr. Mauricio Lopez Duran Ortodoncia,20.576764167587495,-100.37950907383133,Dentist's Office
"Andalucía, Alameda, Aragón, Las Palmas, Mercurio, Observatorio, Panamericano, Valle Alameda, Villas del Sur",20.583606564144898,-100.381213845791,Clínica dental,20.57669123244206,-100.37811269607268,Dentist's Office
"Andalucía, Alameda, Aragón, Las Palmas, Mercurio, Observatorio, Panamericano, Valle Alameda, Villas del Sur",20.583606564144898,-100.381213845791,Dental GS,20.57721237936053,-100.37658524777974,Dentist's Office
"Andalucía, Alameda, Aragón, Las Palmas, Mercurio, Observatorio, Panamericano, Valle Alameda, Villas del Sur",20.583606564144898,-100.381213845791,Laboratorios Chopo,20.590315220909357,-100.37515137729731,Medical Lab
"Andalucía, Alameda, Aragón, Las Palmas, Mercurio, Observatorio, Panamericano, Valle Alameda, Villas del Sur",20.583606564144898,-100.381213845791,Centro de Salud y Deporte Gómez Sainz,20.58182,-100.380385,Rehab Center
"Andalucía, Alameda, Aragón, Las Palmas, Mercurio, Observatorio, Panamericano, Valle Alameda, Villas del Sur",20.583606564144898,-100.381213845791,CEO Centro De Estudios Odontológicos,20.590293,-100.375568,Dentist's Office
"Andalucía, Alameda, Aragón, Las Palmas, Mercurio, Observatorio, Panamericano, Valle Alameda, Villas del Sur",20.583606564144898,-100.381213845791,Dentista Roberto Ayala,20.583027,-100.390506,Dentist's Office
"Andalucía, Alameda, Aragón, Las Palmas, Mercurio, Observatorio, Panamericano, Valle Alameda, Villas del Sur",20.583606564144898,-100.381213845791,san joaquin consultorios,20.581057,-100.389292,Mental Health Office
"Andalucía, Alameda, Aragón, Las Palmas, Mercurio, Observatorio, Panamericano, Valle Alameda, Villas del Sur",20.583606564144898,-100.381213845791,Clínica Veterinaria Villa Mascota,20.58020490920758,-100.37788785179659,Veterinarian
"San Joaquín, Panorámico, El Laurel, Villas del Sol",20.581375530661898,-100.377801200259,Clinica Quiropractica Montaño,20.586697998982153,-100.37661557280582,Medical Center
"San Joaquín, Panorámico, El Laurel, Villas del Sol",20.581375530661898,-100.377801200259,Farmacias del Ahorro,20.586805020191033,-100.37607438651922,Pharmacy
"San Joaquín, Panorámico, El Laurel, Villas del Sol",20.581375530661898,-100.377801200259,Clinica De Especialidades Plazas Del Sol,20.576779012132494,-100.37775280845345,Medical Center
"San Joaquín, Panorámico, El Laurel, Villas del Sol",20.581375530661898,-100.377801200259,Atención Médica Especializada en Urgencias,20.577062189626673,-100.37604524662244,Hospital
"San Joaquín, Panorámico, El Laurel, Villas del Sol",20.581375530661898,-100.377801200259,INNÉOV,20.586899,-100.378142,Pharmacy
"San Joaquín, Panorámico, El Laurel, Villas del Sol",20.581375530661898,-100.377801200259,Farmacias del Ahorro,20.576101574524856,-100.37443263836009,Pharmacy
"San Joaquín, Panorámico, El Laurel, Villas del Sol",20.581375530661898,-100.377801200259,Clinica Queretaro,20.58777439834461,-100.37647575715167,Hospital
"San Joaquín, Panorámico, El Laurel, Villas del Sol",20.581375530661898,-100.377801200259,Farmancia Similares Pza Las Americas,20.587861548056537,-100.37410397112566,Pharmacy
"San Joaquín, Panorámico, El Laurel, Villas del Sol",20.581375530661898,-100.377801200259,Hospital del Niño y la Mujer,20.57833363483512,-100.3702471644663,Hospital
"San Joaquín, Panorámico, El Laurel, Villas del Sol",20.581375530661898,-100.377801200259,HENM,20.57819026204113,-100.3701776770831,Hospital
"San Joaquín, Panorámico, El Laurel, Villas del Sol",20.581375530661898,-100.377801200259,homeopatia de queretaro,20.58917267662068,-100.37653879789377,Pharmacy
"San Joaquín, Panorámico, El Laurel, Villas del Sol",20.581375530661898,-100.377801200259,Farmacia Guadalajara,20.575181606024486,-100.38433343344722,Pharmacy
"San Joaquín, Panorámico, El Laurel, Villas del Sol",20.581375530661898,-100.377801200259,Unidad De Medicina Familiar # 16,20.587474403163966,-100.37183920246302,Medical Center
"San Joaquín, Panorámico, El Laurel, Villas del Sol",20.581375530661898,-100.377801200259,Clínica 16 IMSS,20.58714393652925,-100.37189226318279,Hospital
"San Joaquín, Panorámico, El Laurel, Villas del Sol",20.581375530661898,-100.377801200259,Ultrasonido Médico de Quéretaro (UMQ),20.577369182444787,-100.37330882795649,Doctor's Office
"San Joaquín, Panorámico, El Laurel, Villas del Sol",20.581375530661898,-100.377801200259,Podologo,20.587774,-100.37264,Doctor's Office
"San Joaquín, Panorámico, El Laurel, Villas del Sol",20.581375530661898,-100.377801200259,Especialidades dentales,20.582395038158232,-100.38017470870452,Dentist's Office
"San Joaquín, Panorámico, El Laurel, Villas del Sol",20.581375530661898,-100.377801200259,Dental GS,20.57721237936053,-100.37658524777974,Dentist's Office
"San Joaquín, Panorámico, El Laurel, Villas del Sol",20.581375530661898,-100.377801200259,Dentimex,20.585009,-100.38073,Dentist's Office
"San Joaquín, Panorámico, El Laurel, Villas del Sol",20.581375530661898,-100.377801200259,Clínica dental,20.57669123244206,-100.37811269607268,Dentist's Office
"San Joaquín, Panorámico, El Laurel, Villas del Sol",20.581375530661898,-100.377801200259,Dentalia,20.584932,-100.381166,Dentist's Office
"San Joaquín, Panorámico, El Laurel, Villas del Sol",20.581375530661898,-100.377801200259,Dr. Mauricio Lopez Duran Ortodoncia,20.576764167587495,-100.37950907383133,Dentist's Office
"San Joaquín, Panorámico, El Laurel, Villas del Sol",20.581375530661898,-100.377801200259,Fastdent,20.582606,-100.384444,Dentist's Office
"San Joaquín, Panorámico, El Laurel, Villas del Sol",20.581375530661898,-100.377801200259,Laboratorios Chopo,20.58679585103639,-100.3833949306088,Medical Lab
"San Joaquín, Panorámico, El Laurel, Villas del Sol",20.581375530661898,-100.377801200259,LABORATORIO CHOPO,20.587010524986624,-100.38469923643203,Medical Lab
"San Joaquín, Panorámico, El Laurel, Villas del Sol",20.581375530661898,-100.377801200259,Dental Médica,20.585910749403748,-100.38499539523625,Dentist's Office
"San Joaquín, Panorámico, El Laurel, Villas del Sol",20.581375530661898,-100.377801200259,Centro de Salud y Deporte Gómez Sainz,20.58182,-100.380385,Rehab Center
"San Joaquín, Panorámico, El Laurel, Villas del Sol",20.581375530661898,-100.377801200259,Clínica Veterinaria Villa Mascota,20.58020490920758,-100.37788785179659,Veterinarian
"El Marqués, Quintas del Marqués",20.5838382338255,-100.370058969577,Clinica Quiropractica Montaño,20.586697998982153,-100.37661557280582,Medical Center
"El Marqués, Quintas del Marqués",20.5838382338255,-100.370058969577,Cruz Roja Mexicana,20.580144362182807,-100.36441384000884,Medical Center
"El Marqués, Quintas del Marqués",20.5838382338255,-100.370058969577,Farmacias Benavides,20.588527,-100.369682,Pharmacy
"El Marqués, Quintas del Marqués",20.5838382338255,-100.370058969577,Vázquez Quiropedistas,20.582351668157877,-100.3672581911087,Medical Center
"El Marqués, Quintas del Marqués",20.5838382338255,-100.370058969577,Unidad De Medicina Familiar # 16,20.587474403163966,-100.37183920246302,Medical Center
"El Marqués, Quintas del Marqués",20.5838382338255,-100.370058969577,Farmacias del Ahorro,20.586805020191033,-100.37607438651922,Pharmacy
"El Marqués, Quintas del Marqués",20.5838382338255,-100.370058969577,CRIQ,20.575645402448853,-100.36842296401589,Outdoor Supply Store
"El Marqués, Quintas del Marqués",20.5838382338255,-100.370058969577,Clínica 16 IMSS,20.58714393652925,-100.37189226318279,Hospital
"El Marqués, Quintas del Marqués",20.5838382338255,-100.370058969577,Hospital del Niño y la Mujer,20.57833363483512,-100.3702471644663,Hospital
"El Marqués, Quintas del Marqués",20.5838382338255,-100.370058969577,Farmancia Similares Pza Las Americas,20.587861548056537,-100.37410397112566,Pharmacy
"El Marqués, Quintas del Marqués",20.5838382338255,-100.370058969577,HENM,20.57819026204113,-100.3701776770831,Hospital
"El Marqués, Quintas del Marqués",20.5838382338255,-100.370058969577,Hospital Punta Sur,20.579818552156947,-100.36412685875604,Hospital
"El Marqués, Quintas del Marqués",20.5838382338255,-100.370058969577,Clínica Las Américas,20.58671954447239,-100.36984639928914,Doctor's Office
"El Marqués, Quintas del Marqués",20.5838382338255,-100.370058969577,Clinica Queretaro,20.58777439834461,-100.37647575715167,Hospital
"El Marqués, Quintas del Marqués",20.5838382338255,-100.370058969577,UNEME DEDICAM,20.576515317136636,-100.36948431767465,Medical Center
"El Marqués, Quintas del Marqués",20.5838382338255,-100.370058969577,homeopatia de queretaro,20.58917267662068,-100.37653879789377,Pharmacy
"El Marqués, Quintas del Marqués",20.5838382338255,-100.370058969577,INNÉOV,20.586899,-100.378142,Pharmacy
"El Marqués, Quintas del Marqués",20.5838382338255,-100.370058969577,Sanatorio guadalupe,20.59206206556544,-100.36906758340658,Hospital
"El Marqués, Quintas del Marqués",20.5838382338255,-100.370058969577,Podologo,20.587774,-100.37264,Doctor's Office
"El Marqués, Quintas del Marqués",20.5838382338255,-100.370058969577,Farmacias del Ahorro,20.576101574524856,-100.37443263836009,Pharmacy
"El Marqués, Quintas del Marqués",20.5838382338255,-100.370058969577,Atención Médica Especializada en Urgencias,20.577062189626673,-100.37604524662244,Hospital
"El Marqués, Quintas del Marqués",20.5838382338255,-100.370058969577,Grupo Oftalmológico Visión,20.588362862597382,-100.3682910137886,Doctor's Office
"El Marqués, Quintas del Marqués",20.5838382338255,-100.370058969577,Ultrasonido Médico de Quéretaro (UMQ),20.577369182444787,-100.37330882795649,Doctor's Office
"El Marqués, Quintas del Marqués",20.5838382338255,-100.370058969577,Animal Park Hospital Veterinario,20.590462081353692,-100.37203714265944,Veterinarian
"El Marqués, Quintas del Marqués",20.5838382338255,-100.370058969577,Ortodoncista Arturo Corona Cortes,20.59080012240386,-100.37052314023767,Dentist's Office
"El Marqués, Quintas del Marqués",20.5838382338255,-100.370058969577,Laboratorios Chopo,20.590315220909357,-100.37515137729731,Medical Lab
"El Marqués, Quintas del Marqués",20.5838382338255,-100.370058969577,Clinica Medica Carretas,20.592012405395508,-100.36892700195312,Medical Lab
"El Marqués, Quintas del Marqués",20.5838382338255,-100.370058969577,Wuotto Grupo Dental,20.591178812750154,-100.37282626172359,Dentist's Office
"El Marqués, Quintas del Marqués",20.5838382338255,-100.370058969577,CEO Centro De Estudios Odontológicos,20.590293,-100.375568,Dentist's Office
"El Marqués, Quintas del Marqués",20.5838382338255,-100.370058969577,Dental Lozano (dentista),20.592077274715468,-100.3690856134514,Dentist's Office
"El Marqués, Quintas del Marqués",20.5838382338255,-100.370058969577,Implantoperio,20.592325025749794,-100.37313222885132,Dentist's Office
"El Marqués, Quintas del Marqués",20.5838382338255,-100.370058969577,Clínica Veterinaria Villa Mascota,20.58020490920758,-100.37788785179659,Veterinarian
Arquitos,20.5863187952898,-100.364487464737,Cruz Roja Mexicana,20.580144362182807,-100.36441384000884,Medical Center
Arquitos,20.5863187952898,-100.364487464737,Farmacias Benavides,20.588527,-100.369682,Pharmacy
Arquitos,20.5863187952898,-100.364487464737,Vázquez Quiropedistas,20.582351668157877,-100.3672581911087,Medical Center
Arquitos,20.5863187952898,-100.364487464737,Hospital Punta Sur,20.579818552156947,-100.36412685875604,Hospital
Arquitos,20.5863187952898,-100.364487464737,Laboratorio Medico Polanco B. Quintana,20.593528889516353,-100.36870152246823,Medical Center
Arquitos,20.5863187952898,-100.364487464737,Unidad De Medicina Familiar # 16,20.587474403163966,-100.37183920246302,Medical Center
Arquitos,20.5863187952898,-100.364487464737,Sanatorio guadalupe,20.59206206556544,-100.36906758340658,Hospital
Arquitos,20.5863187952898,-100.364487464737,Clínica 16 IMSS,20.58714393652925,-100.37189226318279,Hospital
Arquitos,20.5863187952898,-100.364487464737,Grupo Oftalmológico Visión,20.588362862597382,-100.3682910137886,Doctor's Office
Arquitos,20.5863187952898,-100.364487464737,Medica Centro Sur,20.578794323277215,-100.36077468662002,Hospital
Arquitos,20.5863187952898,-100.364487464737,Bio Vital,20.59477703941494,-100.3647543388443,Medical Center
Arquitos,20.5863187952898,-100.364487464737,Clinica Ginecologica y Obatetricia,20.57849774990644,-100.36013240632964,Hospital
Arquitos,20.5863187952898,-100.364487464737,Clínica Las Américas,20.58671954447239,-100.36984639928914,Doctor's Office
Arquitos,20.5863187952898,-100.364487464737,Podologo,20.587774,-100.37264,Doctor's Office
Arquitos,20.5863187952898,-100.364487464737,Clinica Dental Universidad Cuauhtemoc,20.58952416076985,-100.36249009320994,Dentist's Office
Arquitos,20.5863187952898,-100.364487464737,Animal Park Hospital Veterinario,20.590462081353692,-100.37203714265944,Veterinarian
Arquitos,20.5863187952898,-100.364487464737,Clinica Medica Carretas,20.592012405395508,-100.36892700195312,Medical Lab
Arquitos,20.5863187952898,-100.364487464737,Dental Lozano (dentista),20.592077274715468,-100.3690856134514,Dentist's Office
Arquitos,20.5863187952898,-100.364487464737,Ortodoncista Arturo Corona Cortes,20.59080012240386,-100.37052314023767,Dentist's Office
Loma Bonita,20.5873900009643,-100.367296996478,Farmacias Benavides,20.588527,-100.369682,Pharmacy
Loma Bonita,20.5873900009643,-100.367296996478,Cruz Roja Mexicana,20.580144362182807,-100.36441384000884,Medical Center
Loma Bonita,20.5873900009643,-100.367296996478,Clinica Quiropractica Montaño,20.586697998982153,-100.37661557280582,Medical Center
Loma Bonita,20.5873900009643,-100.367296996478,Unidad De Medicina Familiar # 16,20.587474403163966,-100.37183920246302,Medical Center
Loma Bonita,20.5873900009643,-100.367296996478,Farmacia Guadalajara,20.595148344997554,-100.3714544733684,Pharmacy
Loma Bonita,20.5873900009643,-100.367296996478,Laboratorio Medico Polanco B. Quintana,20.593528889516353,-100.36870152246823,Medical Center
Loma Bonita,20.5873900009643,-100.367296996478,Sanatorio guadalupe,20.59206206556544,-100.36906758340658,Hospital
Loma Bonita,20.5873900009643,-100.367296996478,Vázquez Quiropedistas,20.582351668157877,-100.3672581911087,Medical Center
Loma Bonita,20.5873900009643,-100.367296996478,Clínica 16 IMSS,20.58714393652925,-100.37189226318279,Hospital
Loma Bonita,20.5873900009643,-100.367296996478,Grupo Oftalmológico Visión,20.588362862597382,-100.3682910137886,Doctor's Office
Loma Bonita,20.5873900009643,-100.367296996478,Farmacias del Ahorro,20.586805020191033,-100.37607438651922,Pharmacy
Loma Bonita,20.5873900009643,-100.367296996478,Farmancia Similares Pza Las Americas,20.587861548056537,-100.37410397112566,Pharmacy
Loma Bonita,20.5873900009643,-100.367296996478,Clínica Las Américas,20.58671954447239,-100.36984639928914,Doctor's Office
Loma Bonita,20.5873900009643,-100.367296996478,Bio Vital,20.59477703941494,-100.3647543388443,Medical Center
Loma Bonita,20.5873900009643,-100.367296996478,Hospital Punta Sur,20.579818552156947,-100.36412685875604,Hospital
Loma Bonita,20.5873900009643,-100.367296996478,Clinica Queretaro,20.58777439834461,-100.37647575715167,Hospital
Loma Bonita,20.5873900009643,-100.367296996478,Farmacias del Ahorro,20.595329956886662,-100.37154062315864,Pharmacy
Loma Bonita,20.5873900009643,-100.367296996478,Farmacias Guadalajara,20.59521784707949,-100.37144438178069,Pharmacy
Loma Bonita,20.5873900009643,-100.367296996478,homeopatia de queretaro,20.58917267662068,-100.37653879789377,Pharmacy
Loma Bonita,20.5873900009643,-100.367296996478,Podologo,20.587774,-100.37264,Doctor's Office
Loma Bonita,20.5873900009643,-100.367296996478,Animal Park Hospital Veterinario,20.590462081353692,-100.37203714265944,Veterinarian
Loma Bonita,20.5873900009643,-100.367296996478,Clinica Medica Carretas,20.592012405395508,-100.36892700195312,Medical Lab
Loma Bonita,20.5873900009643,-100.367296996478,Ortodoncista Arturo Corona Cortes,20.59080012240386,-100.37052314023767,Dentist's Office
Loma Bonita,20.5873900009643,-100.367296996478,Dental Lozano (dentista),20.592077274715468,-100.3690856134514,Dentist's Office
Loma Bonita,20.5873900009643,-100.367296996478,Clinica Dental Universidad Cuauhtemoc,20.58952416076985,-100.36249009320994,Dentist's Office
Loma Bonita,20.5873900009643,-100.367296996478,Wuotto Grupo Dental,20.591178812750154,-100.37282626172359,Dentist's Office
Loma Bonita,20.5873900009643,-100.367296996478,Laboratorios Chopo,20.590315220909357,-100.37515137729731,Medical Lab
Loma Bonita,20.5873900009643,-100.367296996478,Implantoperio,20.592325025749794,-100.37313222885132,Dentist's Office
Loma Bonita,20.5873900009643,-100.367296996478,CEO Centro De Estudios Odontológicos,20.590293,-100.375568,Dentist's Office
Carretas,20.591591060423102,-100.371715906134,Farmacia Guadalajara,20.595148344997554,-100.3714544733684,Pharmacy
Carretas,20.591591060423102,-100.371715906134,Clinica Quiropractica Montaño,20.586697998982153,-100.37661557280582,Medical Center
Carretas,20.591591060423102,-100.371715906134,Farmacias Benavides,20.588527,-100.369682,Pharmacy
Carretas,20.591591060423102,-100.371715906134,Laboratorio Medico Polanco B. Quintana,20.593528889516353,-100.36870152246823,Medical Center
Carretas,20.591591060423102,-100.371715906134,Sanatorio guadalupe,20.59206206556544,-100.36906758340658,Hospital
Carretas,20.591591060423102,-100.371715906134,Clinica Orquideas,20.594126260538758,-100.37908105811566,Medical Center
Carretas,20.591591060423102,-100.371715906134,Farmacias del Ahorro,20.595329956886662,-100.37154062315864,Pharmacy
Carretas,20.591591060423102,-100.371715906134,Farmacias Guadalajara,20.59521784707949,-100.37144438178069,Pharmacy
Carretas,20.591591060423102,-100.371715906134,Unidad De Medicina Familiar # 16,20.587474403163966,-100.37183920246302,Medical Center
Carretas,20.591591060423102,-100.371715906134,Farmacias del Ahorro,20.586805020191033,-100.37607438651922,Pharmacy
Carretas,20.591591060423102,-100.371715906134,Farmancia Similares Pza Las Americas,20.587861548056537,-100.37410397112566,Pharmacy
Carretas,20.591591060423102,-100.371715906134,homeopatia de queretaro,20.58917267662068,-100.37653879789377,Pharmacy
Carretas,20.591591060423102,-100.371715906134,Clínica 16 IMSS,20.58714393652925,-100.37189226318279,Hospital
Carretas,20.591591060423102,-100.371715906134,Clinica Queretaro,20.58777439834461,-100.37647575715167,Hospital
Carretas,20.591591060423102,-100.371715906134,Centro Dermatológico San Francisco,20.599075657030966,-100.37082977945292,Medical Center
Carretas,20.591591060423102,-100.371715906134,Clínica médica del bosque,20.596009469787553,-100.37694832725983,Hospital
Carretas,20.591591060423102,-100.371715906134,Clínica San Francisco,20.59911641862643,-100.37070744132411,Hospital
Carretas,20.591591060423102,-100.371715906134,Bio Vital,20.59477703941494,-100.3647543388443,Medical Center
Carretas,20.591591060423102,-100.371715906134,INNÉOV,20.586899,-100.378142,Pharmacy
Carretas,20.591591060423102,-100.371715906134,Hospital De La Santa Cruz,20.595044791588496,-100.37979379429292,Hospital
Carretas,20.591591060423102,-100.371715906134,Podologo,20.587774,-100.37264,Doctor's Office
Carretas,20.591591060423102,-100.371715906134,Clinica Medica Equilibrium Dentista Nutrición Psicología Medicina Estética Spa,20.598439,-100.37637,Medical Center
Carretas,20.591591060423102,-100.371715906134,Grupo Oftalmológico Visión,20.588362862597382,-100.3682910137886,Doctor's Office
Carretas,20.591591060423102,-100.371715906134,Clínica Las Américas,20.58671954447239,-100.36984639928914,Doctor's Office
Carretas,20.591591060423102,-100.371715906134,Animal Park Hospital Veterinario,20.590462081353692,-100.37203714265944,Veterinarian
Carretas,20.591591060423102,-100.371715906134,Ortodoncista Arturo Corona Cortes,20.59080012240386,-100.37052314023767,Dentist's Office
Carretas,20.591591060423102,-100.371715906134,Wuotto Grupo Dental,20.591178812750154,-100.37282626172359,Dentist's Office
Carretas,20.591591060423102,-100.371715906134,Implantoperio,20.592325025749794,-100.37313222885132,Dentist's Office
Carretas,20.591591060423102,-100.371715906134,Clinica Medica Carretas,20.592012405395508,-100.36892700195312,Medical Lab
Carretas,20.591591060423102,-100.371715906134,Dental Lozano (dentista),20.592077274715468,-100.3690856134514,Dentist's Office
Carretas,20.591591060423102,-100.371715906134,Laboratorios Chopo,20.590315220909357,-100.37515137729731,Medical Lab
Carretas,20.591591060423102,-100.371715906134,CEO Centro De Estudios Odontológicos,20.590293,-100.375568,Dentist's Office
Carretas,20.591591060423102,-100.371715906134,Dicorsa Diagnóstico Computarizado en Odontologia,20.59377480505196,-100.37617424478042,Dentist's Office
Carretas,20.591591060423102,-100.371715906134,Intermedic,20.595101594700893,-100.37709267531004,Medical Lab
Carretas,20.591591060423102,-100.371715906134,Dental Expert,20.59774744165065,-100.37137857850153,Dentist's Office
Carretas,20.591591060423102,-100.371715906134,ORTODONCIA PROFESIONAL,20.592560714363568,-100.37859059397853,Dentist's Office
Carretas,20.591591060423102,-100.371715906134,"OrtoClínicas, Clínica Dental Familiar",20.599270660127672,-100.36931128324221,Dentist's Office
Carretas,20.591591060423102,-100.371715906134,Psic. Jorge Luis Mendoza,20.595237565045565,-100.3774344921112,Mental Health Office
Carretas,20.591591060423102,-100.371715906134,Clinica Dental Universidad Cuauhtemoc,20.58952416076985,-100.36249009320994,Dentist's Office
Hidalgo,20.5876249751697,-100.38541194888201,Farmacia Guadalajara,20.58516005789691,-100.39074403546222,Pharmacy
Hidalgo,20.5876249751697,-100.38541194888201,Clinica Quiropractica Montaño,20.586697998982153,-100.37661557280582,Medical Center
Hidalgo,20.5876249751697,-100.38541194888201,Farmacias del Ahorro,20.58814196734894,-100.38973955277075,Pharmacy
Hidalgo,20.5876249751697,-100.38541194888201,Farmacias del Ahorro,20.583010900216188,-100.38774315482293,Pharmacy
Hidalgo,20.5876249751697,-100.38541194888201,Farmacias del Ahorro,20.592040886080614,-100.39182925487606,Pharmacy
Hidalgo,20.5876249751697,-100.38541194888201,Clinica Orquideas,20.594126260538758,-100.37908105811566,Medical Center
Hidalgo,20.5876249751697,-100.38541194888201,Farmacias Guadalajara,20.588844219859293,-100.3901711326446,Pharmacy
Hidalgo,20.5876249751697,-100.38541194888201,Salupsic,20.58350866874703,-100.38789670594196,Medical Center
Hidalgo,20.5876249751697,-100.38541194888201,Sanatorio Alcocer Pozo,20.59061785026444,-100.38987955347994,Hospital
Hidalgo,20.5876249751697,-100.38541194888201,Farmacia del Ahorro,20.584274,-100.394139,Pharmacy
Hidalgo,20.5876249751697,-100.38541194888201,Prodental Deposito Dental,20.584031516498456,-100.38974046707153,Pharmacy
Hidalgo,20.5876249751697,-100.38541194888201,Secretaría De Salud,20.594393575524382,-100.39026151674763,Medical Center
Hidalgo,20.5876249751697,-100.38541194888201,Farmacias del Ahorro,20.595328352805158,-100.38073219423589,Pharmacy
Hidalgo,20.5876249751697,-100.38541194888201,Farmacias del Ahorro,20.586805020191033,-100.37607438651922,Pharmacy
Hidalgo,20.5876249751697,-100.38541194888201,Lotus: Farmacia Homeopática,20.588880122982893,-100.39256751537323,Pharmacy
Hidalgo,20.5876249751697,-100.38541194888201,INNÉOV,20.586899,-100.378142,Pharmacy
Hidalgo,20.5876249751697,-100.38541194888201,nutrire,20.59460484572172,-100.38610339164734,Medical Center
Hidalgo,20.5876249751697,-100.38541194888201,Policlínica Médica De Querétaro,20.5912154420652,-100.39223513437494,Medical Center
Hidalgo,20.5876249751697,-100.38541194888201,Distribuidora GOBA,20.5799790971077,-100.38809639771702,Medical Center
Hidalgo,20.5876249751697,-100.38541194888201,Grupo Médico Integral,20.583386,-100.393095,Medical Center
Hidalgo,20.5876249751697,-100.38541194888201,Clinica Queretaro,20.58777439834461,-100.37647575715167,Hospital
Hidalgo,20.5876249751697,-100.38541194888201,Sanatorio Mariano,20.590467339588166,-100.39383043043023,Medical Center
Hidalgo,20.5876249751697,-100.38541194888201,homeopatia de queretaro,20.58917267662068,-100.37653879789377,Pharmacy
Hidalgo,20.5876249751697,-100.38541194888201,Farmacias Guadalajara,20.592149,-100.393237,Pharmacy
Hidalgo,20.5876249751697,-100.38541194888201,Hospital Luis Martin,20.58768903499588,-100.39467710021589,Hospital
Hidalgo,20.5876249751697,-100.38541194888201,Medicos Pediatras,20.584461749434386,-100.39056226437263,Doctor's Office
Hidalgo,20.5876249751697,-100.38541194888201,Clinica Dematologica MR,20.583190467184632,-100.38993888294898,Doctor's Office
Hidalgo,20.5876249751697,-100.38541194888201,Clinica Mariano De Las Casas,20.580524376784407,-100.38835741412827,Doctor's Office
Hidalgo,20.5876249751697,-100.38541194888201,Clinica Medica Del Rayo,20.582553993126023,-100.3925477725279,Doctor's Office
Hidalgo,20.5876249751697,-100.38541194888201,Consultorios Médicos y Odontológicos,20.58341082340317,-100.39323338629522,Doctor's Office
